X,Y,OBJECTID,FACILITYID,INTID,LATITUDE,LONGITUDE,COUNTDATE,ADT,STREETONE,DIRECTION,STREETTWO,TRAVELDIRE,NEARINTERS,CITY,ADTONE,ADTTWO,CREATIONDATE,LASTUPDATE,NOTES
6159659.42454433,1952401.84288898,4446,2045,2045,37.34869391,-121.88304505,2018/03/27 00:00:00+00,5613,13TH ST,N of,WASHINGTON ST,N/S,13TH ST & WASHINGTON ST,San Jose,2339,3274,,2021/03/18 17:05:47+00, 
6165293.59831533,1938841.48221448,4447,2046,2046,37.31168149,-121.86298774,2018/04/10 00:00:00+00,6265,7TH ST,S of,LEO AVE,N/S,7TH ST & LEO AVE,San Jose,2842,3423,,2021/03/18 17:05:47+00, 
6158494.95541658,1951732.47349282,4448,2047,2047,37.34680837,-121.88701647,2018/07/31 00:00:00+00,1043,9TH ST,N of,WASHINGTON ST,N/S,9TH ST & WASHINGTON ST,San Jose,589,454,,2021/03/18 17:05:47+00, 
6158544.74632749,1951645.73547731,4449,2048,2048,37.34657221,-121.88684089,2018/07/31 00:00:00+00,1207,9TH ST,S of,WASHINGTON ST,N/S,9TH ST & WASHINGTON ST,San Jose,740,467,,2021/03/18 17:05:47+00, 
6148939.75897583,1958001.95603256,4450,2049,2049,37.3636318,-121.92021112,2018/08/22 00:00:00+00,14432,AIRPORT BLVD,S of,SKYPORT DR,One Way,AIRPORT BLVD & SKYPORT DR,San Jose,,,,2021/03/18 17:05:47+00, 
6148592.06249274,1960437.48462607,4451,2050,2050,37.37029485,-121.92153142,2018/05/16 00:00:00+00,18369,AIRPORT BLVD,W of,GATEWAY PL,E/W,AIRPORT BLVD & GATEWAY PL,San Jose,7987,10382,,2021/03/18 17:05:47+00, 
6186712.84058174,1944157.57427256,4452,2051,2051,37.3271045,-121.78959906,2018/09/12 00:00:00+00,1567,ALLENWOOD DR,E of,DAVIDWOOD WY,E/W,ALLENWOOD DR & DAVIDWOOD WY,San Jose,883,684,,2021/03/18 17:05:47+00, 
6185125.69644633,1944043.47771598,4453,2052,2052,37.32673458,-121.7950539,2018/09/05 00:00:00+00,1796,ALLENWOOD DR,W of,ALLENWOOD CT,E/W,ALLENWOOD DR & ALLENWOOD CT,San Jose,886,910,,2021/03/18 17:05:47+00, 
6163710.00863475,1941340.57990657,4454,2053,2053,37.31846974,-121.86855589,2018/04/10 00:00:00+00,9291,ALMA AVE,E of,7TH ST,E/W,ALMA AVE & 7TH ST,San Jose,4859,4432,,2021/03/18 17:05:47+00, 
6158929.28886549,1938161.64039831,4455,2054,2054,37.30954735,-121.8848356,2018/04/10 00:00:00+00,13180,ALMA AVE,W of,LELONG AVE,E/W,ALMA AVE & LELONG AVE,San Jose,6759,6421,,2021/03/18 17:05:47+00, 
6161217.02707216,1939840.3263454,4456,2055,2055,37.31424961,-121.87704955,2018/04/10 00:00:00+00,16962,ALMA AVE,W of,POMONA AVE,E/W,ALMA AVE & POMONA AVE,San Jose,8905,8057,,2021/03/18 17:05:47+00, 
6159716.96708016,1941603.89270015,4457,2056,2056,37.31904321,-121.8822985,2018/07/31 00:00:00+00,8385,ALMADEN AVE,N of,WILLOW ST,One Way,ALMADEN AVE & WILLOW ST,San Jose,,,,2021/03/18 17:05:47+00, 
6175174.81575757,1914243.31717207,4458,2057,2057,37.24451051,-121.82781702,2018/09/05 00:00:00+00,503,ARIEL DR,W of,ARIEL CT,E/W,ARIEL DR & ARIEL CT,San Jose,232,271,,2021/03/18 17:05:47+00, 
6174459.99139982,1914150.36788289,4459,2058,2058,37.24422912,-121.83026963,2018/05/30 00:00:00+00,610,ARIEL DR,W of,HILLBRIGHT CIR,E/W,ARIEL DR & HILLBRIGHT CIR,San Jose,307,303,,2021/03/18 17:05:47+00, 
6170110.48664741,1944701.50625557,4460,2059,2059,37.32795467,-121.84671228,2018/06/12 00:00:00+00,2966,AUBUDON DR,W of,POWELL CT,E/W,AUBUDON DR & POWELL CT,San Jose,1833,1133,,2021/03/18 17:05:47+00, 
6170187.6246165,1944765.10160081,4461,2060,2060,37.32813238,-121.84645008,2018/06/12 00:00:00+00,2722,AUDUBON DR,E of,POWELL CT,E/W,AUDUBON DR & POWELL CT,San Jose,1568,1154,,2021/03/18 17:05:47+00, 
6193252.096204,1908168.14822006,4462,2061,2061,37.22851628,-121.76542628,2018/04/03 00:00:00+00,1078,AVENIDA ESPANA,N of,PITTSFIELD WAY,N/S,AVENIDA ESPANA & PITTSFIELD WAY,San Jose,516,562,,2021/03/18 17:05:47+00, 
6203666.65739582,1900065.27269356,4463,2062,2062,37.20664286,-121.72929571,2018/04/11 00:00:00+00,9925,BAILEY AVE,W of,MONTEREY RAMP RD,E/W,BAILEY AVE & MONTEREY RAMP RD,San Jose,4215,5710,,2021/03/18 17:05:47+00, 
6201531.39099708,1898054.46930048,4464,2063,2063,37.20104275,-121.73653782,2018/03/20 00:00:00+00,5525,BAILEY AVE,W of,SANTA TERESA BLVD,E/W,BAILEY AVE & SANTA TERESA BLVD,San Jose,2631,2894,,2021/03/18 17:05:47+00, 
6144469.49331008,1925721.55241765,4465,2064,2064,37.27479699,-121.93388631,2018/08/29 00:00:00+00,19954,BASCOM AVE,N of,UNION AVE,N/S,BASCOM AVE & UNION AVE,San Jose,9674,10280,,2021/03/18 17:05:47+00, 
6156459.47687599,1961574.15230022,4466,2065,2065,37.37374064,-121.89452232,2018/02/06 00:00:00+00,4173,BERGER DR,W of,OAKLAND RD,E/W,BERGER DR & OAKLAND RD,San Jose,2300,1873,,2021/03/18 17:05:47+00, 
6191207.43625133,1915134.11000989,4467,2066,2066,37.24757287,-121.77277295,2018/08/14 00:00:00+00,13846,BERNAL RD,N of,RUE FERRARI,N/S,BERNAL RD & RUE FERRARI,San Jose,7264,6582,,2021/03/18 17:05:47+00, 
6190625.89574775,1908569.5896744,4468,2067,2067,37.22951935,-121.77446581,2018/08/21 00:00:00+00,20817,BERNAL RD,W of,VIA DEL ORO,E/W,BERNAL RD & VIA DEL ORO,San Jose,9942,10875,,2021/03/18 17:05:47+00, 
6154536.48826791,1937960.99808306,4469,2068,2068,37.3088277,-121.89992367,2018/06/12 00:00:00+00,848,BLEWETT AVE,S of,WILLOW ST,N/S,BLEWETT AVE & WILLOW ST,San Jose,315,533,,2021/03/18 17:05:47+00, 
6154536.48826791,1937960.99808306,4470,2069,2069,37.3088277,-121.89992367,2018/09/12 00:00:00+00,936,BLEWETTE AVE,S of,WILLOW ST,N/S,BLEWETTE AVE & WILLOW ST,San Jose,352,584,,2021/03/18 17:05:47+00, 
6163983.22396758,1916551.39752965,4471,2070,2070,37.25040846,-121.86637828,2018/10/16 00:00:00+00,,BLOSSOM HILL RD,E of,WINFIELD BLVD,W/E,BLOSSOM HILL RD&WINFIELD BLVD,San Jose,13597,,,2021/03/18 17:05:47+00,Counts were only collected in one direction.
6162965.21812958,1921771.55375598,4472,2071,2071,37.26470081,-121.8701357,2018/08/22 00:00:00+00,20815,BRANHAM LN,E of,GLENMONT DR,E/W,BRANHAM LN & GLENMONT DR,San Jose,10487,10328,,2021/03/18 17:05:47+00, 
6161945.10993358,1921468.22398207,4473,2072,2072,37.26382627,-121.8736245,2018/08/22 00:00:00+00,23053,BRANHAM LN,E of,HAMPSHIRE PL,E/W,BRANHAM LN & HAMPSHIRE PL,San Jose,11608,11445,,2021/03/18 17:05:47+00, 
6156171.61984016,1964851.78419639,4474,2073,2073,37.38273389,-121.89568863,2018/10/11 00:00:00+00,45690,BROKAW RD,E of,OAKLAND RD,E/W,BROKAW RD&OAKLAND RD,San Jose,23170,22520,,2021/03/18 17:05:47+00, 
6154785.5688065,1964731.86252023,4475,2074,2074,37.38234356,-121.90044585,2018/04/10 00:00:00+00,49988,BROKAW RD,E of,RIDDER PARK DR,E/W,BROKAW RD & RIDDER PARK DR,San Jose,24837,25151,,2021/03/18 17:05:47+00, 
6151031.255449,1962941.4021904,4476,2075,2075,37.37727178,-121.91327094,2018/04/10 00:00:00+00,31226,BROKAW RD,W of,ZANKER RD,E/W,BROKAW RD & ZANKER RD,San Jose,14039,17187,,2021/03/18 17:05:47+00, 
6133305.0723975,1929165.30865347,4477,2076,2076,37.28376979,-121.97244726,2018/08/21 00:00:00+00,1506,BUCKNALL RD,E of,ANTHONY DR,E/W,BUCKNALL RD & ANTHONY DR,San Jose,698,808,,2021/03/18 17:05:47+00, 
6153318.48479842,1955784.09793548,4478,2077,2077,37.35771119,-121.90503238,2018/09/11 00:00:00+00,2675,BURTON AVE,E of,SECOND ST,E/W,BURTON AVE & SECOND ST,San Jose,1193,1482,,2021/03/18 17:05:47+00, 
6176295.84927666,1913350.13260673,4479,2078,2078,37.24210747,-121.82392481,2018/04/03 00:00:00+00,2559,CALERO AVE,W of,CLYDESDALE AVE,E/W,CALERO AVE & CLYDESDALE AVE,San Jose,1266,1293,,2021/03/18 17:05:47+00, 
6164104.66663808,1905759.64549115,4480,2079,2079,37.22077912,-121.86542076,2018/08/21 00:00:00+00,15777,CAMDEN AVE,W of,TRINIDAD DR,E/W,CAMDEN AVE & TRINIDAD DR,San Jose,8651,7126,,2021/03/18 17:05:47+00, 
6161817.92646091,1932098.5426164,4481,2080,2080,37.29301733,-121.87460162,2018/10/17 00:00:00+00,9316,CANOAS GARDEN AVE,S of,CURTNER AVE,S/N,CANOAS GARDEN AVE & CURTNER AVE,San Jose,4479,4837,,2021/03/18 17:05:47+00, 
6182623.93832649,1921060.59290756,4482,2081,2081,37.2635286,-121.80254546,2018/10/02 00:00:00+00,839,CARRYBACK AVE,S of,WHIRLAWAY DR,N/S,CARRYBACK AVE & WHIRLAWAY DR,San Jose,480,359,,2021/03/18 17:05:47+00, 
6148373.41069908,1963691.54865597,4483,2082,2082,37.37922116,-121.92245868,2018/04/10 00:00:00+00,13263,CHARCOT AVE,E of,FIRST ST,E/W,CHARCOT AVE & FIRST ST,San Jose,7174,6089,,2021/03/18 17:05:47+00, 
6151154.3752815,1965450.95589831,4484,2083,2083,37.38416929,-121.91297521,2018/03/27 00:00:00+00,7587,CHARCOT AVE,E of,JUNCTION AVE,E/W,CHARCOT AVE & JUNCTION AVE,San Jose,5007,2580,,2021/03/18 17:05:47+00, 
6158346.2349135,1920966.90641515,4485,2084,2084,37.26231398,-121.88595755,2018/10/23 00:00:00+00,7433,CHERRY AVE,N of,CHERRY CT,S/N,CHERRY AVE & CHERRY CT,San Jose,3604,3829,,2021/03/18 17:05:47+00, 
6117437.23733532,1937481.04628706,4486,2085,2085,37.30591309,-122.027448,2018/02/07 00:00:00+00,787,CHIALA LN,E of,WINDSOR ST,E/W,CHIALA LN & WINDSOR ST,San Jose,370,417,,2021/03/18 17:05:47+00, 
6117343.49145983,1937514.86282048,4487,2086,2086,37.30599753,-122.02777281,2018/02/07 00:00:00+00,656,CHIALA LN,W of,WINDSOR ST,E/W,CHIALA LN & WINDSOR ST,San Jose,308,348,,2021/03/18 17:05:47+00, 
6146939.85779192,1975689.22708839,4488,2087,2087,37.41211269,-121.92801382,2018/08/15 00:00:00+00,11524,CISCO WY,S of,TASMAN DR,N/S,CISCO WY & TASMAN DR,San Jose,5801,5723,,2021/03/18 17:05:47+00, 
6149993.02688241,1952077.80810398,4489,2088,2088,37.34740644,-121.91628243,2018/10/10 00:00:00+00,,COLEMAN AVE,N of,MCKENDRIE ST,N/S,COLEMAN AVE&MCKENDRIE ST,San Jose,29640,,,2021/03/18 17:05:47+00,Counts were only collected in one direction.
6158651.18640333,1959384.33417331,4490,2089,2089,37.36781648,-121.88686997,2018/04/10 00:00:00+00,18934,COMMERCIAL ST,W of,COMMERCIAL CT,E/W,COMMERCIAL ST & COMMERCIAL CT,San Jose,8297,10637,,2021/03/18 17:05:47+00, 
6178589.51693341,1925931.6395959,4491,2090,2090,37.27674398,-121.81665421,2018/05/08 00:00:00+00,579,CONTINENTAL DR,W of,SYMPHONY LN,E/W,CONTINENTAL DR & SYMPHONY LN,San Jose,217,362,,2021/03/18 17:05:47+00, 
6129513.78109558,1934151.22617505,4492,2091,2091,37.29730551,-121.98574602,2018/01/30 00:00:00+00,1755,COUNTRY LN,E of,SARATOGA FRONTAGE RD,E/W,COUNTRY LN & SARATOGA FRONTAGE RD,San Jose,775,980,,2021/03/18 17:05:47+00, 
6129438.52960566,1934226.64400323,4493,2092,2092,37.29750901,-121.98600957,2018/01/30 00:00:00+00,1414,COUNTRY LN,W of,SARATOGA FRONTAGE RD,E/W,COUNTRY LN & SARATOGA FRONTAGE RD,San Jose,602,812,,2021/03/18 17:05:47+00, 
6183340.48873067,1925384.4103754,4494,2093,2093,37.27542453,-121.80030133,2018/08/15 00:00:00+00,2447,COYOTE RD,E of,SCARLEET WAY,E/W,COYOTE RD & SCARLEET WAY,San Jose,1199,1248,,2021/03/18 17:05:47+00, 
6184860.71567708,1920184.33350523,4495,2094,2094,37.26120648,-121.79481705,2018/08/14 00:00:00+00,7496,COYOTE RD,S of,CENTURY OAKS WAY,N/S,COYOTE RD & CENTURY OAKS WAY,San Jose,3805,3691,,2021/03/18 17:05:47+00, 
6178403.13508832,1926880.33914207,4496,2095,2095,37.27934207,-121.8173406,2018/08/15 00:00:00+00,2855,COYOTE RD,W of,LA TOREE AVE,E/W,COYOTE RD & LA TOREE AVE,San Jose,1402,1453,,2021/03/18 17:05:47+00, 
6147825.39440666,1926095.2810009,4497,2096,2096,37.27596197,-121.92238378,2018/04/03 00:00:00+00,14397,CURTNER AVE,E of,LEIGH AVE,E/W,CURTNER AVE & LEIGH AVE,San Jose,7488,6909,,2021/03/18 17:05:47+00, 
6155362.30157691,1938418.90038247,4498,2097,2097,37.31011896,-121.89711035,2018/09/12 00:00:00+00,536,CURTIS AVE,S of,WILLOW ST,N/S,CURTIS AVE & WILLOW ST,San Jose,301,235,,2021/03/18 17:05:47+00, 
6149660.64434507,1926914.52640964,4499,2098,2098,37.27827931,-121.91611364,2018/05/09 00:00:00+00,15846,CURTNER AVE,E of,DUMBARTON AVE,E/W,CURTNER AVE & DUMBARTON AVE,San Jose,8233,7613,,2021/03/18 17:05:47+00, 
6144791.88833459,1924901.10294306,4500,2099,2099,37.27254998,-121.9327452,2018/05/09 00:00:00+00,15769,CURTNER AVE,E of,UNION AVE,E/W,CURTNER AVE & UNION AVE,San Jose,7167,8602,,2021/03/18 17:05:47+00, 
6181926.95678084,1936576.21509148,4501,2100,2100,37.3061008,-121.80568983,2018/02/06 00:00:00+00,9327,DANIEL MALONEY DR,E of,BEN LOMOND WY,E/W,DANIEL MALONEY DR & BEN LOMOND WY,San Jose,4517,4810,,2021/03/18 17:05:47+00, 
6183218.47519517,1937158.26051532,4502,2101,2101,37.30774857,-121.80127715,2018/02/06 00:00:00+00,7513,DANIEL MALONEY DR,E of,METHILHAVEN LN,E/W,DANIEL MALONEY DR & METHILHAVEN LN,San Jose,3587,3926,,2021/03/18 17:05:47+00, 
6181837.64593583,1936531.09838381,4503,2102,2102,37.30597344,-121.80599441,2018/02/06 00:00:00+00,10095,DANIEL MALONEY DR,W of,BEN LOMOND WY,E/W,DANIEL MALONEY DR & BEN LOMOND WY,San Jose,5204,4891,,2021/03/18 17:05:47+00, 
6183129.86185533,1937111.86690731,4504,2103,2103,37.30761778,-121.80157948,2018/02/06 00:00:00+00,7838,DANIEL MALONEY DR,W of,METHILHAVEN LN,E/W,DANIEL MALONEY DR & METHILHAVEN LN,San Jose,3932,3906,,2021/03/18 17:05:47+00, 
6191587.31705324,1936688.16499881,4505,2104,2104,37.30677522,-121.77248737,2018/10/17 00:00:00+00,7624,DELTA RD,E of,OLDFIELD WAY,E/W,DELTA RD & OLDFIELD WAY,San Jose,3802,3822,,2021/03/18 17:05:47+00, 
6190441.92039391,1936487.68442865,4506,2105,2105,37.30618163,-121.77641523,2018/10/17 00:00:00+00,7738,DELTA RD,W of,MIDDLE PARK DR,E/W,DELTA RD & MIDDLE PARK DR,San Jose,3821,3917,,2021/03/18 17:05:47+00, 
6137594.21769059,1980064.12417848,4507,2106,2106,37.42373427,-121.96042341,2018/10/17 00:00:00+00,759,DISK DR,N of,NORTECH PW,N/S,DISK DR & NORTECH PW,San Jose,354,405,,2021/03/18 17:05:47+00, 
6176797.8318685,1911136.01498772,4508,2107,2107,37.23604725,-121.82207978,2018/12/05 00:00:00+00,2260,DUNN AVE,N of,BANNER DR,N/S,DUNN AVE & BANNER DR,San Jose,1114,1146,,2021/03/18 17:05:47+00, 
6176795.61304091,1909983.35817231,4509,2108,2108,37.23288182,-121.82203153,2018/12/05 00:00:00+00,1377,DUNN AVE,N of,FEVER DR,N/S,DUNN AVE & FEVER DR,San Jose,707,670,,2021/03/18 17:05:47+00, 
6176797.69440158,1911036.00961031,4510,2109,2109,37.23577263,-121.82207542,2018/12/05 00:00:00+00,1554,DUNN AVE,S of,BANNER DR,N/S,DUNN AVE & BANNER DR,San Jose,698,856,,2021/03/18 17:05:47+00, 
6131285.27591217,1932540.98431681,4511,2110,2110,37.29295242,-121.97957236,2018/10/03 00:00:00+00,859,DUVALL DR,W of,LATIMER AVE,E/W,DUVALL DR & LATIMER AVE,San Jose,427,432,,2021/03/18 17:05:47+00, 
6165035.91707216,1951469.64199749,4512,2111,2111,37.34633914,-121.86450485,2018/01/30 00:00:00+00,446,E SAN FERNANDO ST,E of,S 26TH ST,E/W,E SAN FERNANDO ST & S 26TH ST,San Jose,275,171,,2021/03/18 17:05:47+00, 
6164949.14526407,1951419.92424914,4513,2112,2112,37.34619912,-121.86480078,2018/01/30 00:00:00+00,610,E SAN FERNANDO,W of,S 26TH ST,E/W,E SAN FERNANDO & S 26TH ST,San Jose,382,228,,2021/03/18 17:05:47+00, 
6138633.61554617,1936381.98188415,4514,2113,2113,37.30382245,-121.9545071,2018/06/12 00:00:00+00,3034,EDEN AVE,N of,FINCH DR,N/S,EDEN AVE & FINCH DR,San Jose,1662,1372,,2021/03/18 17:05:47+00, 
6138659.15552133,1938492.20633823,4515,2114,2114,37.30961831,-121.95453192,2018/06/12 00:00:00+00,2466,EDEN AVE,N of,JADE AVE,N/S,EDEN AVE & JADE AVE,San Jose,1138,1328,,2021/03/18 17:05:47+00, 
6138651.44753149,1939877.80035181,4516,2115,2115,37.31342304,-121.95463247,2018/06/12 00:00:00+00,2692,EDEN AVE,N of,ROSEDALE DR,N/S,EDEN AVE & ROSEDALE DR,San Jose,1240,1452,,2021/03/18 17:05:47+00, 
6180820.77100109,1923494.74420723,4517,2116,2116,37.27014239,-121.80886872,2018/08/21 00:00:00+00,1502,ELLA DR,E of,RAHWAY DR,E/W,ELLA DR & RAHWAY DR,San Jose,737,765,,2021/03/18 17:05:47+00, 
6155492.87710316,1954079.05541381,4518,2117,2117,37.35312983,-121.89746347,2018/09/11 00:00:00+00,1910,5TH ST,S of,MISSION ST,N/S,5TH ST & MISSION ST,San Jose,949,961,,2021/03/18 17:05:47+00, 
6161617.34287257,1967058.01075506,4519,2118,2118,37.3890213,-121.87705444,2018/04/10 00:00:00+00,9972,FLICKINGER AVE,N of,ASTRO CT,N/S,FLICKINGER AVE & ASTRO CT,San Jose,4746,5226,,2021/03/18 17:05:47+00, 
6163053.91381833,1965308.98899065,4520,2119,2119,37.38427612,-121.87202201,2018/04/10 00:00:00+00,9992,FLICKINGER AVE,N of,BRANTLEY DR,N/S,FLICKINGER AVE & BRANTLEY DR,San Jose,4655,5337,,2021/03/18 17:05:47+00, 
6144095.489793,1944767.58125465,4521,2120,2120,37.32707663,-121.93618571,2018/04/03 00:00:00+00,12189,FOREST AVE,W of,BELLEROSE DR,E/W,FOREST AVE & BELLEROSE DR,San Jose,6855,5334,,2021/03/18 17:05:47+00, 
6152924.55612433,1957806.43345773,4522,2121,2121,37.3632601,-121.90649076,2018/08/15 00:00:00+00,11553,FOURTH ST,S of,GISH RD,N/S,FOURTH ST & GISH RD,San Jose,5606,5947,,2021/03/18 17:05:47+00, 
6154610.21712308,1966801.82130681,4523,2122,2122,37.38802084,-121.90115595,2018/03/21 00:00:00+00,5667,FOX LN,E of,RIDDER PARK DR,E/W,FOX LN & RIDDER PARK DR,San Jose,2542,3125,,2021/03/18 17:05:47+00, 
6149604.13166283,1947446.96139456,4524,2123,2123,37.33466262,-121.9173732,2018/10/23 00:00:00+00,916,FREMONT ST,N of,MORSE ST,N/S,FREMONT ST & MORSE ST,San Jose,234,682,,2021/03/18 17:05:47+00, 
6179375.21943025,1918775.3054834,4525,2124,2124,37.2571208,-121.81360849,2018/11/14 00:00:00+00,340,GERINE BLOSSOM DR 250FT,E of,APPLE BLOSSOM DR,E/W,GERINE BLOSSOM DR 250FT & APPLE BLOSSOM DR,San Jose,224,116,,2021/03/18 17:05:47+00, 
6155684.88885824,1955299.21471889,4526,2125,2125,37.35647692,-121.89686652,2018/05/16 00:00:00+00,14559,HEDDING ST,E of,SEVENTH ST,E/W,HEDDING ST & SEVENTH ST,San Jose,7098,7461,,2021/03/18 17:05:47+00, 
6153707.92824525,1954173.8665759,4527,2126,2126,37.35330535,-121.90361016,2018/05/16 00:00:00+00,13382,HEDDING ST,W of,FIRST ST,E/W,HEDDING ST & FIRST ST,San Jose,6984,6398,,2021/03/18 17:05:47+00, 
6164742.33170132,1927284.16510606,4528,2127,2127,37.27991049,-121.86430521,2018/08/15 00:00:00+00,15674,HILLSDALE AVE,E of,NARVEZ AVE,E/W,HILLSDALE AVE & NARVEZ AVE,San Jose,7696,7978,,2021/03/18 17:05:47+00, 
6161044.94802,1967823.51316106,4529,2128,2128,37.39109042,-121.87905657,2018/10/11 00:00:00+00,37918,HOSTETTER RD,E of,FLICKINGER AVE,E/W,HOSTETTER RD&FLICKINGER AVE,San Jose,17949,19969,,2021/03/18 17:05:47+00, 
6169079.715415,1920818.11504607,4530,2129,2129,37.26233531,-121.84907934,2018/04/03 00:00:00+00,2924,HYDE PARK DR,E of,BARRON PARK DR,E/W,HYDE PARK DR &BARRON PARK DR,San Jose,1849,1075,,2021/03/18 17:05:47+00, 
6123816.17831758,1936602.60906756,4531,2130,2130,37.30378117,-122.00545635,2018/09/12 00:00:00+00,5997,JOHNSON AVE,N of,CASTLE GLEN AVE,N/S,JOHNSON AVE & CASTLE GLEN AVE,San Jose,3090,2907,,2021/03/18 17:05:47+00, 
6123231.94917108,1934105.75415315,4532,2131,2131,37.29690107,-122.0073267,2018/09/26 00:00:00+00,4202,JOHNSON AVE,N of,MCKELLAR DR,N/S,JOHNSON AVE & MCKELLAR DR,San Jose,2136,2066,,2021/03/18 17:05:47+00, 
6124209.40358099,1937846.83984682,4533,2132,2132,37.30721528,-122.00417333,2018/09/12 00:00:00+00,7324,JOHNSON AVE,N of,TOMPKINS DR,N/S,JOHNSON AVE & TOMPKINS DR,San Jose,3961,3363,,2021/03/18 17:05:47+00, 
6152664.02678974,1961481.43398173,4534,2133,2133,37.37333025,-121.90757592,2018/03/27 00:00:00+00,2808,JUNCTION AVE,E of,ROGERS AVE,E/W,JUNCTION AVE & ROGERS AVE,San Jose,1615,1193,,2021/03/18 17:05:47+00, 
6152271.07219508,1963850.83442664,4535,2134,2134,37.37983188,-121.90905464,2018/03/27 00:00:00+00,8306,JUNCTION AVE,S of,BROKAW RD,N/S,JUNCTION AVE & BROKAW RD,San Jose,4351,3955,,2021/03/18 17:05:47+00, 
6164904.49377859,1957386.64394298,4536,2135,2135,37.36259443,-121.86525487,2018/02/13 00:00:00+00,16695,KING RD,N of,LAS PLUMAS AVE,N/S,KING RD & LAS PLUMAS AVE,San Jose,7806,8889,,2021/03/18 17:05:47+00, 
6163145.054056,1960071.77243099,4537,2136,2136,37.36989768,-121.87144116,2018/02/06 00:00:00+00,18300,KING RD,S of,SALAMONI CT,N/S,KING RD & SALAMONI CT,San Jose,8958,9342,,2021/03/18 17:05:47+00, 
6155052.72214358,1938244.50342156,4538,2137,2137,37.30962734,-121.8981657,2018/09/12 00:00:00+00,699,KOTENBERG AVE,S of,WILLOW ST,N/S,KOTENBERG AVE & WILLOW ST,San Jose,352,347,,2021/03/18 17:05:47+00, 
6155052.72214358,1938244.50342156,4539,2138,2138,37.30962734,-121.8981657,2018/06/12 00:00:00+00,623,KOTENBURG AVE,S of,WILLOW ST,N/S,KOTENBURG AVE & WILLOW ST,San Jose,307,316,,2021/03/18 17:05:47+00, 
6178433.91947559,1927447.89574973,4540,2139,2139,37.28090561,-121.81724857,2018/05/30 00:00:00+00,1310,LA TORRE AVE,N of,KEEWADIN CT,N/S,LA TORRE AVE & KEEWADIN CT,San Jose,591,719,,2021/03/18 17:05:47+00, 
6178433.91947559,1927447.89574973,4541,2140,2140,37.28090561,-121.81724857,2018/10/03 00:00:00+00,1263,LA TORRE AVE,N of,KEEWAYDIN CT,N/S,LA TORRE AVE & KEEWAYDIN CT,San Jose,580,683,,2021/03/18 17:05:47+00, 
6131331.2692585,1932590.61971623,4542,2141,2141,37.29309638,-121.97940435,2018/10/03 00:00:00+00,1468,LATIMER AVE,N of,DUVALL DR,N/S,LATIMER AVE & DUVALL DR,San Jose,673,795,,2021/03/18 17:05:47+00, 
6131331.68592434,1932490.62188473,4543,2142,2142,37.2928218,-121.97939749,2018/10/03 00:00:00+00,1079,LATIMER AVE,S of,DUVALL DR,N/S,LATIMER AVE & DUVALL DR,San Jose,570,509,,2021/03/18 17:05:47+00, 
6178205.79132292,1915417.98805106,4544,2143,2143,37.24786091,-121.81745091,2018/03/27 00:00:00+00,7334,LEAN AVE,N of,BANGOR AVE,N/S,LEAN AVE & BANGOR AVE,San Jose,3784,3550,,2021/03/18 17:05:47+00, 
6178337.33272649,1912437.9421739,4545,2144,2144,37.23968437,-121.81685736,2018/03/27 00:00:00+00,6603,LEAN AVE,N of,SURBER DR,N/S,LEAN AVE & SURBER DR,San Jose,3291,3312,,2021/03/18 17:05:47+00, 
6178080.36079949,1910229.13852064,4546,2145,2145,37.23359986,-121.81763208,2018/07/31 00:00:00+00,2204,LEAN AVE,N of,WASKOW DR,N/S,LEAN AVE & WASKOW DR,San Jose,1080,1124,,2021/03/18 17:05:47+00, 
6147758.97820091,1939760.93509997,4547,2147,2147,37.31348791,-121.92331398,2018/05/09 00:00:00+00,10810,LEIGH AVE,N of,KINGMAN AVE,N/S,LEIGH AVE & KINGMAN AVE,San Jose,4958,5852,,2021/03/18 17:05:47+00, 
6147642.274038,1941195.13039431,4548,2148,2148,37.31742049,-121.92378933,2018/07/31 00:00:00+00,7403,LEIGH AVE,N of,PARKMOOR AVE,N/S,LEIGH AVE & PARKMOOR AVE,San Jose,4003,3400,,2021/03/18 17:05:47+00, 
6148245.62978667,1924518.16899765,4549,2149,2149,37.27164791,-121.920844,2018/05/09 00:00:00+00,17229,LEIGH AVE,N of,POTRERO DR,N/S,LEIGH AVE & POTRERO DR,San Jose,8342,8887,,2021/03/18 17:05:47+00, 
6148129.48927091,1937321.79726173,4550,2150,2150,37.30680696,-121.92191641,2018/04/03 00:00:00+00,8376,LEIGH AVE,N of,SOUTHWEST EXPY,N/S,LEIGH AVE & SOUTHWEST EXPY,San Jose,3415,4961,,2021/03/18 17:05:47+00, 
6147833.94228983,1935319.17921972,4551,2151,2151,37.3012938,-121.92282468,2018/05/09 00:00:00+00,16429,LEIGH AVE,S of,STOKES ST,N/S,LEIGH AVE & STOKES ST,San Jose,7220,9209,,2021/03/18 17:05:47+00, 
6159257.61334008,1939766.27006306,4552,2152,2152,37.31397809,-121.88378388,2018/08/22 00:00:00+00,1696,LICK AVE,N of,W HUMBOLDT ST,N/S,LICK AVE & W HUMBOLDT ST,San Jose,859,837,,2021/03/18 17:05:47+00, 
6152059.65004575,1943754.07934465,4553,2153,2153,37.32463168,-121.9087334,2018/01/30 00:00:00+00,2895,LINCOLN AVE,N of,PACIFIC AVE,N/S,LINCOLN AVE & PACIFIC AVE,San Jose,1562,1333,,2021/03/18 17:05:47+00, 
6164155.16227199,1934651.06244573,4554,2154,2154,37.3001284,-121.86669065,2018/10/17 00:00:00+00,12204,LITTLE ORCHARD ST,N of,CURTNER AVE,N/S,LITTLE ORCHARD ST & CURTNER AVE,San Jose,5890,6314,,2021/03/18 17:05:47+00, 
6136983.96530217,1982836.4214554,4555,2155,2155,37.4313178,-121.96268771,2018/03/27 00:00:00+00,1809,LOS ESTEROS RD,E of,GRAND BLVD,E/W,LOS ESTEROS RD & GRAND BLVD,San Jose,965,844,,2021/03/18 17:05:47+00, 
6143083.00953449,1983897.77924082,4556,2156,2156,37.43449921,-121.9417322,2018/03/27 00:00:00+00,4205,LOS ESTEROS RD,W of,ZANKER RD,E/W,LOS ESTEROS RD & ZANKER RD,San Jose,2161,2044,,2021/03/18 17:05:47+00, 
6177646.66087949,1926718.81846774,4557,2157,2157,37.27887319,-121.81991895,2018/05/08 00:00:00+00,671,LULLABY LN,N of,SERENADE WAY,N/S,LULLABY LN & SERENADE WAY,San Jose,318,353,,2021/03/18 17:05:47+00, 
6177639.53983074,1926619.27962482,4558,2158,2158,37.27859905,-121.81993838,2018/05/08 00:00:00+00,260,LULLABY LN,S of,SERENADE WAY,N/S,LULLABY LN & SERENADE WAY,San Jose,122,138,,2021/03/18 17:05:47+00, 
6157668.66080932,1969092.53883822,4559,2159,2159,37.39444557,-121.89074051,2018/03/27 00:00:00+00,15291,LUNDY AVE,N of,COMMERCE DR,N/S,LUNDY AVE & COMMERCE DR,San Jose,6362,8929,,2021/03/18 17:05:47+00, 
6158966.04699408,1966531.01574606,4560,2160,2160,37.38746679,-121.88615104,2018/03/27 00:00:00+00,18735,LUNDY AVE,N of,HOSTETTER RD,N/S,LUNDY AVE & HOSTETTER RD,San Jose,8861,9874,,2021/03/18 17:05:47+00, 
6161112.16967033,1963772.12821923,4561,2161,2161,37.37997751,-121.87862479,2018/04/25 00:00:00+00,18881,LUNDY AVE,N of,SIERRA RD,N/S,LUNDY AVE & SIERRA RD,San Jose,8226,10655,,2021/03/18 17:05:47+00, 
6166822.41743617,1961480.93890397,4562,2162,2162,37.37390349,-121.85885767,2018/08/15 00:00:00+00,16109,MABURY RD,W of,JACKSON AVE,E/W,MABURY RD & JACKSON AVE,San Jose,8322,7787,,2021/03/18 17:05:47+00, 
6180975.82285634,1915734.59601365,4563,2163,2163,37.24883925,-121.80795269,2018/05/08 00:00:00+00,774,MAKATI CIR,N of,BANGOR AVE,N/S,MAKATI CIR & BANGOR AVE,San Jose,313,461,,2021/03/18 17:05:47+00, 
6180999.187639,1915637.45480374,4564,2164,2164,37.24857321,-121.80786748,2018/05/08 00:00:00+00,934,MAKATI CIR,S of,BANGOR AVE,N/S,MAKATI CIR & BANGOR AVE,San Jose,543,391,,2021/03/18 17:05:47+00, 
6148278.16613892,1942058.31305115,4565,2165,2165,37.31981729,-121.92164787,2018/04/03 00:00:00+00,671,MENKER AVE,N of,SCOTT ST,N/S,MENKER AVE & SCOTT ST,San Jose,429,242,,2021/03/18 17:05:47+00, 
6148276.50866191,1941958.35983898,4566,2166,2166,37.31954266,-121.9216483,2018/04/03 00:00:00+00,2810,MENKER AVE,S of,SCOTT ST,N/S,MENKER AVE & SCOTT ST,San Jose,1841,969,,2021/03/18 17:05:47+00, 
6151882.7202815,1925546.96549648,4567,2167,2167,37.27462733,-121.90840497,2018/01/30 00:00:00+00,22934,MERIDIAN AVE,N of,HUSTED AVE,N/S,MERIDIAN AVE & HUSTED AVE,San Jose,11495,11439,,2021/03/18 17:05:47+00, 
6150439.52631749,1928544.66422547,4568,2168,2168,37.28279691,-121.91351441,2018/01/30 00:00:00+00,25176,MERIDIAN AVE,N of,MAYKIRK RD,N/S,MERIDIAN AVE & MAYKIRK RD,San Jose,12860,12316,,2021/03/18 17:05:47+00, 
6149360.01896209,1959483.02492081,4569,2169,2169,37.3677165,-121.91884186,2018/08/15 00:00:00+00,4743,METRO DR,E of,TECHNOLOGY DR,E/W,METRO DR & TECHNOLOGY DR,San Jose,2766,1977,,2021/03/18 17:05:47+00, 
6149310.4222765,1959569.50407857,4570,2170,2170,37.36795197,-121.91901829,2018/08/22 00:00:00+00,2553,METRO DR,W of,TECHNOLOGY DR,E/W,METRO DR & TECHNOLOGY DR,San Jose,1350,1203,,2021/03/18 17:05:47+00, 
6155882.84581141,1936507.7897034,4571,2171,2171,37.30488074,-121.89521973,2018/06/12 00:00:00+00,10627,MINNESOTA AVE,E of,SETTLE AVE,E/W,MINNESOTA AVE& SETTLE AVE,San Jose,5530,5097,,2021/03/18 17:05:47+00, 
6155882.84581141,1936507.7897034,4572,2172,2172,37.30488074,-121.89521973,2018/09/12 00:00:00+00,11756,MINNESOTTA AVE,E of,SETTLE AVE,E/W,MINNESOTTA AVE & SETTLE AVE,San Jose,6149,5607,,2021/03/18 17:05:47+00, 
6155194.32455066,1953969.56383489,4573,2173,2173,37.35280535,-121.89848564,2018/09/11 00:00:00+00,2421,MISSION ST,E of,4TH ST,E/W,MISSION ST & 4TH ST,San Jose,1366,1055,,2021/03/18 17:05:47+00, 
6155106.04323116,1953918.21616857,4574,2174,2174,37.3526613,-121.89878705,2018/09/11 00:00:00+00,3090,MISSION,W of,4TH ST,E/W,MISSION & 4TH ST,San Jose,1688,1402,,2021/03/18 17:05:47+00, 
6141990.89820166,1942671.91254573,4575,2175,2175,37.32123825,-121.94329914,2018/04/03 00:00:00+00,7069,MONROE ST,S of,HEMLOCK AVE,N/S,MONROE ST & HEMLOCK AVE,San Jose,3352,3717,,2021/03/18 17:05:47+00, 
6154447.421845,1943759.76995006,4576,2176,2176,37.32474838,-121.90052764,2018/10/10 00:00:00+00,,MONTGOMERY ST,N of,SAN CARLOS ST,S/N,MONTGOMERY ST&SAN CARLOS ST,San Jose,9744,,,2021/03/18 17:05:47+00,Counts were only collected in one direction.
6146727.35526416,1940824.14852473,4577,2177,2177,37.31635797,-121.92692846,2018/10/17 00:00:00+00,21714,MOORPARK AVE,W of,LELAND AVE,One Way,MOORPARK AVE & LELAND AVE,San Jose,,,,2021/03/18 17:05:47+00, 
6146804.47387633,1946423.84533057,4578,2178,2178,37.3317363,-121.92694753,2018/04/25 00:00:00+00,11528,NAGLEE AVE,W of,DANA AVE,E/W,NAGLEE AVE & DANA AVE,San Jose,6477,5051,,2021/03/18 17:05:47+00, 
6148313.06075417,1947829.95308265,4579,2179,2179,37.33566072,-121.921833,2018/04/03 00:00:00+00,12280,NAGLEE AVE,W of,EMERSON CT,E/W,NAGLEE AVE & EMERSON CT,San Jose,6813,5467,,2021/03/18 17:05:47+00, 
6164931.08690125,1926589.50573424,4580,2180,2180,37.27802062,-121.86361508,2018/04/25 00:00:00+00,12099,NARVAEZ AVE,S of,SHADOW CREEK DR,N/S,NARVAEZ AVE & SHADOW CREEK DR,San Jose,5480,6619,,2021/03/18 17:05:47+00, 
6146894.20696458,1922654.19405106,4581,2181,2181,37.26647273,-121.92539031,2018/03/27 00:00:00+00,1438,NEW JERSEY AVE,S of,GENEVA ST,N/S,NEW JERSEY AVE & GENEVA ST,San Jose,933,505,,2021/03/18 17:05:47+00, 
6183951.41861117,1937189.06688415,4582,2182,2182,37.30787259,-121.79875685,2018/04/10 00:00:00+00,7237,NIEMAN BL,S of,BLANDING AVE,N/S,NIEMAN BL & BLANDING AVE,San Jose,3699,3538,,2021/03/18 17:05:47+00, 
6177813.06343383,1927932.80947806,4583,2183,2183,37.28220954,-121.81941949,2018/06/19 00:00:00+00,1416,NOKOMIS DR,W of,LOBUE WAY,E/W,NOKOMIS DR & LOBUE WAY,San Jose,808,608,,2021/03/18 17:05:47+00, 
6153228.43084466,1966485.50008906,4584,2184,2184,37.38710375,-121.90588845,2018/03/27 00:00:00+00,6566,O'TOOLE AVE,N of,CHARCOT AVE,N/S,O'TOOLE AVE & CHARCOT AVE,San Jose,2784,3782,,2021/03/18 17:05:47+00, 
6151283.04759634,1970485.56951673,4585,2185,2185,37.3980103,-121.91280151,2018/04/10 00:00:00+00,9777,O'TOOLE AVE,S of,MONTAGUE EXPY,N/S,O'TOOLE AVE & MONTAGUE EXPY,San Jose,4650,5127,,2021/03/18 17:05:47+00, 
6154934.78274691,1967032.00358923,4586,2186,2186,37.38867778,-121.90004989,2018/04/10 00:00:00+00,20931,OAKLAND RD,N of,FOX LN,N/S,OAKLAND RD & FOX LN,San Jose,10021,10910,,2021/03/18 17:05:47+00, 
6154308.42966892,1970320.21190782,4587,2187,2187,37.39768036,-121.90237066,2018/04/10 00:00:00+00,20155,OAKLAND RD,N of,SEAREEL LN,N/S,OAKLAND RD & SEAREEL LN,San Jose,9869,10286,,2021/03/18 17:05:47+00, 
6156314.14055249,1962246.05187507,4588,2188,2188,37.37559051,-121.89505371,2018/01/30 00:00:00+00,23553,OAKLAND RD,S of,BERN CT,N/S,OAKLAND RD & BERN CT,San Jose,10988,12565,,2021/03/18 17:05:47+00, 
6157115.6665085,1959198.74399331,4589,2189,2189,37.3672534,-121.89213759,2018/01/30 00:00:00+00,25533,OAKLAND RD,S of,CHARLES ST,N/S,OAKLAND RD & CHARLES ST,San Jose,11660,13873,,2021/03/18 17:05:47+00, 
6179120.90629058,1927238.79380573,4590,2190,2190,37.28036049,-121.81487962,2018/07/31 00:00:00+00,7205,PALISADE DR,N of,RIVER FALLS DR,N/S,PALISADE DR & RIVER FALLS DR,San Jose,3627,3578,,2021/03/18 17:05:47+00, 
6179163.45377766,1927148.82056049,4591,2191,2191,37.28011635,-121.81473517,2018/07/31 00:00:00+00,7099,PALISADE DR,S of,RIVER FALLS DR,N/S,PALISADE DR & RIVER FALLS DR,San Jose,3576,3523,,2021/03/18 17:05:47+00, 
6187704.26510808,1915069.4073834,4592,2192,2192,37.24725986,-121.78480602,2018/03/27 00:00:00+00,609,PALMWELL WAY,W of,SOUTHPINE DR,E/W,PALMWELL WAY & SOUTHPINE DR,San Jose,311,298,,2021/03/18 17:05:47+00, 
6149206.80896667,1930658.96577114,4593,2193,2193,37.28854643,-121.91787382,2018/01/30 00:00:00+00,721,PATIO DR,E of,HURST AVE,E/W,PATIO DR&HURST AVE,San Jose,263,458,,2021/03/18 17:05:47+00, 
6136666.98923008,1935470.25732964,4594,2194,2194,37.30123383,-121.96121843,2018/10/23 00:00:00+00,1098,PHELPS AVE 330 FT,S of,PAYNE,N/S,PHELPS AVE 330 FT & PAYNE,San Jose,544,554,,2021/03/18 17:05:47+00, 
6136666.98923008,1935470.25732964,4595,2195,2195,37.30123383,-121.96121843,2018/10/23 00:00:00+00,808,PHELPS AVE 800FT,S of,PAYNE AVE,N/S,PHELPS AVE 800FT & PAYNE AVE,San Jose,387,421,,2021/03/18 17:05:47+00, 
6192303.37533242,1916782.94660723,4596,2196,2196,37.25214692,-121.76908871,2018/03/27 00:00:00+00,678,PIERCY RD,N of,TENNANT AVE,N/S,PIERCY RD & TENNANT AVE,San Jose,356,322,,2021/03/18 17:05:47+00, 
6188740.2174325,1918997.25484264,4597,2197,2197,37.25808435,-121.78143414,2018/03/27 00:00:00+00,2940,PIERCY RD,W of,HELLYER AVE,E/W,PIERCY RD & HELLYER AVE,San Jose,1493,1447,,2021/03/18 17:05:47+00, 
6146770.95327409,1968876.76138264,4598,2198,2198,37.39340639,-121.92826286,2018/03/27 00:00:00+00,3683,PLUMERIA DR,W of,ZANKER RD,E/W,PLUMERIA DR & ZANKER RD,San Jose,1792,1891,,2021/03/18 17:05:47+00, 
6155649.57265592,1926521.67811398,4599,2199,2199,37.27745904,-121.89551021,2018/08/21 00:00:00+00,2443,PLUMMER AVE,S of,KOCH LN,N/S,PLUMMER AVE & KOCH LN,San Jose,1253,1190,,2021/03/18 17:05:47+00, 
6181602.69922724,1916655.88747814,4600,2200,2200,37.25138385,-121.80585138,2018/06/19 00:00:00+00,14754,POUGHKEEPSIE RD,W of,MUSTO AVE,E/W,POUGHKEEPSIE RD & MUSTO AVE,San Jose,10109,4645,,2021/03/18 17:05:47+00, 
6121047.02112624,1932925.42416473,4601,2201,2201,37.29355924,-122.01478518,2018/03/20 00:00:00+00,18405,PROSPECT RD,E of,MILLER AVE,E/W,PROSPECT RD & MILLER AVE,San Jose,9387,9018,,2021/03/18 17:05:47+00, 
6118413.68977875,1933096.7355019,4602,2202,2202,37.29391205,-122.02384599,2018/03/20 00:00:00+00,18231,PROSPECT RD,W of,BLANEY AVE,E/W,PROSPECT RD & BLANEY AVE,San Jose,9118,9113,,2021/03/18 17:05:47+00, 
6126012.06959508,1932437.52159724,4603,2203,2203,37.29244118,-121.9976928,2018/03/27 00:00:00+00,27321,PROSPECT RD,W of,LAWRENCE EXP,E/W,PROSPECT RD & LAWRENCE EXP,San Jose,14145,13176,,2021/03/18 17:05:47+00, 
6178898.39820541,1942710.15361097,4604,2204,2204,37.32283905,-121.81640215,2018/05/16 00:00:00+00,17098,QUIMBY RD,W of,RIGOLETTO DR,E/W,QUIMBY RD & RIGOLETTO DR,San Jose,9806,7292,,2021/03/18 17:05:47+00, 
6180776.98959258,1923568.94681473,4605,2205,2205,37.27034348,-121.80900993,2018/08/15 00:00:00+00,1364,RAHWAY DR,N of,ELLA DR,N/S,RAHWAY DR & ELLA DR,San Jose,745,619,,2021/03/18 17:05:47+00, 
6160213.03695416,1945055.37497039,4606,2206,2206,37.32853016,-121.8807687,2018/05/16 00:00:00+00,13881,REED ST,W of,FOURTH ST,E/W,REED ST & FOURTH ST,San Jose,6067,7814,,2021/03/18 17:05:47+00, 
6161766.64769208,1945946.94274107,4607,2207,2207,37.33104139,-121.87547104,2018/03/27 00:00:00+00,3842,REED ST,W of,NINTH ST,E/W,REED ST & NINTH ST,San Jose,2280,1562,,2021/03/18 17:05:47+00, 
6177601.7239615,1941579.65062265,4608,2208,2208,37.31967449,-121.82080014,2018/10/16 00:00:00+00,8219,RIGGOLETTO DR,E of,OTHELLO AVE,E/W,RIGGOLETTO DR & OTHELLO AVE,San Jose,3470,4749,,2021/03/18 17:05:47+00, 
6178450.52213266,1942182.43452206,4609,2209,2209,37.32136274,-121.81791053,2018/10/16 00:00:00+00,6856,RIGOLETTO DR,E of,MOZART AVE,E/W,RIGOLETTO DR & MOZART AVE,San Jose,3013,3843,,2021/03/18 17:05:47+00, 
6177601.7239615,1941579.65062265,4610,2210,2210,37.31967449,-121.82080014,2018/10/11 00:00:00+00,8224,RIGOLETTO DR,E of,OTHELLO AVE,E/W,RIGOLETTO DR & OTHELLO AVE,San Jose,3545,4679,,2021/03/18 17:05:47+00, 
6140754.98335066,1974178.28358798,4611,2211,2211,37.40770527,-121.94922597,2018/08/15 00:00:00+00,4637,RIO ROBLES DR,S of,TASMAN DR,N/S,RIO ROBLES DR & TASMAN DR,San Jose,1864,2773,,2021/03/18 17:05:47+00, 
6179090.24887158,1927171.21060756,4612,2212,2212,37.2801636,-121.81498756,2018/07/31 00:00:00+00,242,RIVER FALLS DR,W of,PALISADE DR,E/W,RIVER FALLS DR & PALISADE DR,San Jose,109,133,,2021/03/18 17:05:47+00, 
6180470.90063784,1921828.53034806,4613,2213,2213,37.26555284,-121.80997795,2018/08/21 00:00:00+00,4182,ROEDER RD,S of,GREY GHOST AVE,N/S,ROEDER RD & GREY GHOST AVE,San Jose,2255,1927,,2021/03/18 17:05:47+00, 
6148690.46255842,1922884.32712097,4614,2214,2214,37.26718283,-121.91923582,2018/04/03 00:00:00+00,9660,ROSS AVE,S of,FOXWORTHY AVE,N/S,ROSS AVE & FOXWORTHY AVE,San Jose,4973,4687,,2021/03/18 17:05:47+00, 
6151049.67765625,1918484.1308689,4615,2215,2215,37.25519717,-121.91090174,2018/04/03 00:00:00+00,7321,ROSS AVE,S of,PASATIEMPO DR,N/S,ROSS AVE & PASATIEMPO DR,San Jose,3562,3759,,2021/03/18 17:05:47+00, 
6164967.243325,1951483.8227434,4616,2216,2216,37.34638687,-121.86474102,2018/01/30 00:00:00+00,1339,S 26TH ST,N of,E SAN FERNANDO ST,N/S,S 26TH ST & E SAN FERNANDO ST,San Jose,737,602,,2021/03/18 17:05:47+00, 
6165017.21665025,1951397.21136807,4617,2217,2217,37.34615102,-121.86456476,2018/01/30 00:00:00+00,,S 26TH ST,S of,E SAN FERNANDO ST,N/S,S 26TH ST & E SAN FERNANDO ST,San Jose,540,,,2021/03/18 17:05:47+00,Counts were only collected in one direction.
6169023.51145916,1950578.32881948,4618,2218,2218,37.34406176,-121.85074519,2018/04/03 00:00:00+00,829,S 34TH ST,N of,VIRGINIA PL,N/S,S 34TH ST & VIRGINIA PL,San Jose,220,609,,2021/03/18 17:05:47+00, 
6169023.51145916,1950578.32881948,4619,2219,2219,37.34406176,-121.85074519,2018/04/03 00:00:00+00,938,S 34TH ST,S of,VIRGINIA PL,N/S,S 34TH ST & VIRGINIA PL,San Jose,505,433,,2021/03/18 17:05:47+00, 
6160343.11116908,1940514.97493048,4620,2220,2220,37.31607822,-121.88009035,2018/08/28 00:00:00+00,7131,S ALMADEN WAY,S of,W HUMBOLDT ST,One Way,S ALMADEN WAY & W HUMBOLDT ST,San Jose,,,,2021/03/18 17:05:47+00, 
6189692.64630191,1936852.49833156,4621,2221,2221,37.3071654,-121.77900484,2018/04/10 00:00:00+00,20164,SAN FELIPE RD,N of,MIDHURST WY,N/S,SAN FELIPE RD & MIDHURST WY,San Jose,10141,10023,,2021/03/18 17:05:47+00, 
6192767.99907508,1932425.92221098,4622,2222,2222,37.29512402,-121.76822319,2018/08/15 00:00:00+00,14099,SAN FELIPE RD,N of,OLD ESTATES CT,N/S,SAN FELIPE RD & OLD ESTATES CT,San Jose,7069,7030,,2021/03/18 17:05:47+00, 
6190968.12340975,1935138.59132631,4623,2223,2223,37.30250633,-121.77454008,2018/04/10 00:00:00+00,24053,SAN FELIPE RD,N of,PASEO DE ARBOLES,N/S,SAN FELIPE RD & PASEO DE ARBOLES,San Jose,11947,12106,,2021/03/18 17:05:47+00, 
6186443.59833808,1939040.58417848,4624,2224,2224,37.31304846,-121.79028405,2018/04/10 00:00:00+00,23683,SAN FELIPE RD,S of,KEATON LOOP,N/S,SAN FELIPE RD & KEATON LOOP,San Jose,11671,12012,,2021/03/18 17:05:47+00, 
6189815.58601667,1910711.74418274,4625,2225,2225,37.2353803,-121.77735902,2018/08/14 00:00:00+00,16128,SAN IGNACIO AVE,S of,GREAT OAKS BLVD,N/S,SAN IGNACIO AVE & GREAT OAKS BLVD,San Jose,7546,8582,,2021/03/18 17:05:47+00, 
6175576.70176484,1927771.96596773,4626,2226,2226,37.28168563,-121.82708439,2018/06/12 00:00:00+00,352,SAN RAMON WAY,S of,COSTA MESA DR,N/S,SAN RAMON WAY&COSTA MESA DR,San Jose,159,193,,2021/03/18 17:05:47+00, 
6175585.73422708,1926785.42168097,4627,2227,2227,37.27897664,-121.82700521,2018/06/12 00:00:00+00,466,SAN RAMON WAY,N of,SANTA ROSA DR,N/S,SAN RAMON WAY & SANTA ROSA DR,San Jose,207,259,,2021/03/18 17:05:47+00, 
6175586.28573516,1926685.40055557,4628,2228,2228,37.27870206,-121.82699849,2018/06/12 00:00:00+00,1133,SAN RAMON WAY,S of,SANTA ROSA DR,N/S,SAN RAMON WAY & SANTA ROSA DR,San Jose,503,630,,2021/03/18 17:05:47+00, 
6165640.3069395,1913816.69302531,4629,2229,2229,37.24297144,-121.86053766,2018/10/16 00:00:00+00,19366,SANTA TERESA BLVD,N of,COLEMAN AVE,N/S,SANTA TERESA BLVD & COLEMAN AVE,San Jose,9542,9824,,2021/03/18 17:05:47+00, 
6174859.85805416,1926747.6320584,4630,2230,2230,37.2788395,-121.82951094,2018/06/12 00:00:00+00,1370,SANTA ROSA DR,E of,SAN SIMEON WAY,E/W,SANTA ROSA DR&SAN SIMEON WAY,San Jose,683,687,,2021/03/18 17:05:47+00, 
6175639.68490659,1926737.48247239,4631,2231,2231,37.27884189,-121.82683037,2018/06/12 00:00:00+00,990,SANTA ROSA DR,E of,SAN RAMON WAY,E/W,SANTA ROSA DR & SAN RAMON WAY,San Jose,505,485,,2021/03/18 17:05:47+00, 
6175539.71758683,1926738.11534515,4632,2232,2232,37.27883985,-121.82717403,2018/06/12 00:00:00+00,856,SANTA ROSA DR,W of,SAN RAMON WAY,E/W,SANTA ROSA DR & SAN RAMON WAY,San Jose,476,380,,2021/03/18 17:05:47+00, 
6201538.70495883,1898118.56005156,4633,2233,2233,37.20123008,-121.73651971,2018/05/16 00:00:00+00,8301,SANTA TERESA BLVD,N of,BAILEY AVE,N/S,SANTA TERESA BLVD & BAILEY AVE,San Jose,4153,4148,,2021/03/18 17:05:47+00, 
6166173.56604359,1917449.94264856,4634,2234,2234,37.25296914,-121.85888589,2018/05/16 00:00:00+00,45155,SANTA TERESA BLVD,N of,THORNWOOD DR,N/S,SANTA TERESA BLVD & THORNWOOD DR,San Jose,21453,23702,,2021/03/18 17:05:47+00, 
6194249.47511475,1904910.98577115,4635,2235,2235,37.21961646,-121.76185895,2018/03/20 00:00:00+00,8022,SANTA TERESA BLVD,S of,BAYLISS DR,N/S,SANTA TERESA BLVD & BAYLISS DR,San Jose,3854,4168,,2021/03/18 17:05:47+00, 
6176257.114446,1911681.06475064,4636,2236,2236,37.23751767,-121.82397624,2018/04/03 00:00:00+00,17953,SANTA TERESA BLVD,W of,BANNER DR,E/W,SANTA TERESA BLVD & BANNER DR,San Jose,8839,9114,,2021/03/18 17:05:47+00, 
6178277.63140233,1911461.08356331,4637,2237,2237,37.23699391,-121.81702647,2018/04/03 00:00:00+00,17517,SANTA TERESA BLVD,W of,LEAN AVE,E/W,SANTA TERESA BLVD & LEAN AVE,San Jose,8723,8794,,2021/03/18 17:05:47+00, 
6180328.50656566,1911412.9343814,4638,2238,2238,37.23693895,-121.80997926,2018/04/03 00:00:00+00,18952,SANTA TERESA BLVD,W of,SPRINGER WAY,E/W,SANTA TERESA BLVD & SPRINGER WAY,San Jose,9431,9521,,2021/03/18 17:05:47+00, 
6129545.55891916,1934235.25389415,4639,2239,2239,37.29752735,-121.9856348,2018/01/30 00:00:00+00,529,SARATOGA FRONTAGE RD,N of,COUNTRY LN,N/S,SARATOGA FRONTAGE RD & COUNTRY LN,San Jose,262,267,,2021/03/18 17:05:47+00, 
6129432.14772867,1934116.33418448,4640,2240,2240,37.29719589,-121.98601804,2018/01/30 00:00:00+00,235,SARATOGA FRONTAGE RD,S of,COUNTRY LN,N/S,SARATOGA FRONTAGE RD & COUNTRY LN,San Jose,67,168,,2021/03/18 17:05:47+00, 
6148997.60695724,1941989.69081306,4641,2241,2241,37.31965355,-121.9191833,2018/04/03 00:00:00+00,3562,SCOTT ST,W of,BUENA VISTA AVE,E/W,SCOTT ST & BUENA VISTA AVE,San Jose,2114,1448,,2021/03/18 17:05:47+00, 
6154558.34649192,1953541.63522881,4642,2242,2242,37.35161559,-121.90065024,2018/09/11 00:00:00+00,1079,SECOND ST,S of,MISSION ST,N/S,SECOND ST & MISSION ST,San Jose,643,436,,2021/03/18 17:05:47+00, 
6177598.16556966,1926673.96914798,4643,2243,2243,37.27874426,-121.82009705,2018/05/08 00:00:00+00,3429,SERNADE WAY,W of,LULLABY LN,E/W,SERNADE WAY & LULLABY LN,San Jose,1703,1726,,2021/03/18 17:05:47+00, 
6154767.73518075,1938088.68286707,4644,2244,2244,37.30918774,-121.89913744,2018/09/12 00:00:00+00,406,SETTLE AVE,S of,WILLOW ST,N/S,SETTLE AVE & WILLOW ST,San Jose,223,183,,2021/03/18 17:05:47+00, 
6163641.00516383,1941353.74917156,4645,2245,2245,37.31851464,-121.86879273,2018/03/20 00:00:00+00,13509,SEVENTH ST,N of,ALMA AVE,N/S,SEVENTH ST & ALMA AVE,San Jose,6167,7342,,2021/03/18 17:05:47+00, 
6156520.93967958,1953739.09021448,4646,2246,2246,37.35223834,-121.89390962,2018/01/30 00:00:00+00,3620,SEVENTH ST,N of,TAYLOR ST,N/S,SEVENTH ST & TAYLOR ST,San Jose,1792,1828,,2021/03/18 17:05:47+00, 
6157475.64019799,1952078.04957332,4647,2247,2247,37.34771585,-121.89054044,2018/01/30 00:00:00+00,1943,SEVENTH ST,S of,EMPIRE ST,N/S,SEVENTH ST & EMPIRE ST,San Jose,840,1103,,2021/03/18 17:05:47+00, 
6156118.47165249,1954439.19052032,4648,2248,2248,37.35414445,-121.8953298,2018/09/11 00:00:00+00,4012,SEVENTH ST,S of,MISSION ST,N/S,SEVENTH ST & MISSION ST,San Jose,2029,1983,,2021/03/18 17:05:47+00, 
6158680.24047908,1949982.39694048,4649,2249,2249,37.34200991,-121.88629007,2018/01/30 00:00:00+00,2228,SEVENTH ST,S of,ST JAMES ST,N/S,SEVENTH ST & ST JAMES ST,San Jose,865,1363,,2021/03/18 17:05:47+00, 
6166724.50752699,1968811.8294259,4650,2250,2250,37.39403135,-121.85956358,2018/03/27 00:00:00+00,5984,SIERRA RD,W of,MORRILL AVE,E/W,SIERRA RD & MORRILL AVE,San Jose,2381,3603,,2021/03/18 17:05:47+00, 
6169585.46374732,1970387.06905757,4651,2251,2251,37.39847096,-121.8497944,2018/03/21 00:00:00+00,7079,SIERRA RD,W of,QUINCY AVE,E/W,SIERRA RD & QUINCY AVE,San Jose,3256,3823,,2021/03/18 17:05:47+00, 
6176428.65216066,1918433.04730965,4652,2252,2252,37.25607202,-121.8237023,2018/09/05 00:00:00+00,1310,SIGRID WY,N of,PECAN GROVE CT,N/S,SIGRID WY & PECAN GROVE CT,San Jose,623,687,,2021/03/18 17:05:47+00, 
6180003.82283182,1937617.06307539,4653,2253,2253,37.30889653,-121.81235143,2018/06/26 00:00:00+00,17309,SILVER CREEK RD,S of,LEXANN AVE,N/S,SILVER CREEK RD & LEXANN AVE,San Jose,8745,8564,,2021/03/18 17:05:47+00, 
6186484.20849308,1918678.55666114,4654,2254,2254,37.25712669,-121.7891798,2018/08/14 00:00:00+00,17514,SILVER CREEK VALLEY RD,E of,PIERCY RD,E/W,SILVER CREEK VALLEY RD & PIERCY RD,San Jose,8876,8638,,2021/03/18 17:05:47+00, 
6188502.96396999,1931059.02665082,4655,2255,2255,37.29120834,-121.78281482,2018/08/22 00:00:00+00,15319,SILVER CREEK VALLEY RD,S of,HASSLER PKWY,N/S,SILVER CREEK VALLEY RD & HASSLER PKWY,San Jose,8297,7022,,2021/03/18 17:05:47+00, 
6155809.56938316,1954261.48057389,4656,2256,2256,37.35364375,-121.89638338,2018/09/11 00:00:00+00,1507,SIXTH ST,S of,MISSION ST,N/S,SIXTH ST & MISSION ST,San Jose,892,615,,2021/03/18 17:05:47+00, 
6149907.32921916,1958631.34650606,4657,2257,2257,37.36538893,-121.91691571,2018/04/10 00:00:00+00,12206,SKYPORT DR,E of,TECHNOLOGY DR,E/W,SKYPORT DR & TECHNOLOGY DR,San Jose,7619,4587,,2021/03/18 17:05:47+00, 
6174316.01432557,1909543.47880273,4658,2258,2258,37.23157721,-121.83052626,2018/03/20 00:00:00+00,3751,SNELL AVE,N of,CAYUGA DR,N/S,SNELL AVE & CAYUGA DR,San Jose,1914,1837,,2021/03/18 17:05:47+00, 
6170818.81265858,1926693.8073629,4659,2259,2259,37.27854123,-121.84339055,2018/09/11 00:00:00+00,13750,SNELL AVE,N of,HILLCAP AVE,N/S,SNELL AVE & HILLCAP AVE,San Jose,6921,6829,,2021/03/18 17:05:47+00, 
6174332.20392574,1922020.42825823,4660,2260,2260,37.26584236,-121.83108039,2018/04/03 00:00:00+00,22696,SNELL AVE,S of,BRANHAM LN,N/S,SNELL AVE & BRANHAM LN,San Jose,11027,11669,,2021/03/18 17:05:47+00, 
6174350.06937557,1919395.47812757,4661,2261,2261,37.25863486,-121.83089109,2018/04/25 00:00:00+00,26874,SNELL AVE,S of,CHYNOWETH AVE,N/S,SNELL AVE & CHYNOWETH AVE,San Jose,12912,13962,,2021/03/18 17:05:47+00, 
6174323.01267116,1913031.33993722,4662,2262,2262,37.24115586,-121.83067257,2018/05/16 00:00:00+00,14229,SNELL AVE,S of,SHAWNEE LN,N/S,SNELL AVE & SHAWNEE LN,San Jose,6954,7275,,2021/03/18 17:05:47+00, 
6172636.14006066,1924440.44474365,4663,2263,2263,37.27242464,-121.83703227,2018/04/03 00:00:00+00,16762,SNELL AVE,S of,WOLFBERRY CT,N/S,SNELL AVE & WOLFBERRY CT,San Jose,8231,8531,,2021/03/18 17:05:47+00, 
6177697.88945158,1926666.88189182,4664,2264,2264,37.27872853,-121.81975394,2018/05/09 00:00:00+00,4113,SRENADE WAY,E of,LULLABY LN,E/W,SRENADE WAY & LULLABY LN,San Jose,2078,2035,,2021/03/18 17:05:47+00, 
6141947.94979675,1943446.59570764,4665,2265,2265,37.32335859,-121.94350082,2018/10/10 00:00:00+00,,STEVENS CREEK BLVD,W of,MONROE ST,E/W,STEVENS CREEK BLVD&MONROE ST,San Jose,24180,,,2021/03/18 17:05:47+00,Counts were only collected in one direction.
6144095.96977891,1943412.14269257,4666,2266,2266,37.32335465,-121.93611268,2018/05/16 00:00:00+00,22019,STEVENS CREEK BLVD,W of,BELLAROSE DR,E/W,STEVENS CREEK BLVD & BELLAROSE DR,San Jose,10931,11088,,2021/03/18 17:05:47+00, 
6168160.41279167,1946503.27397747,4667,2267,2267,37.33282543,-121.85350787,2018/10/05 00:00:00+00,,STORY RD,E of,MCLAUGHLIN AVE,E/W,STORY RD&MCLAUGHLIN AVE,San Jose,25159,,,2021/03/18 17:05:47+00,Counts were only collected in one direction.
6181110.36753474,1957605.38891231,4668,2268,2268,37.36382184,-121.80951307,2018/08/15 00:00:00+00,5882,STORY RD,W of,WATTERS DR,E/W,STORY RD & WATTERS DR,San Jose,2668,3214,,2021/03/18 17:05:47+00, 
6178638.44728175,1925976.66837724,4669,2269,2269,37.27687337,-121.8164746,2018/05/09 00:00:00+00,450,SYMPHONY LN,N of,CONTINENTAL DR,N/S,SYMPHONY LN & CONTINENTAL DR,San Jose,220,230,,2021/03/18 17:05:47+00, 
6146133.90172666,1921518.08083773,4670,2270,2270,37.26332042,-121.92794288,2018/05/08 00:00:00+00,613,TAPER AVE,N of,JANET AVE,N/S,TAPER AVE & JANET AVE,San Jose,355,258,,2021/03/18 17:05:47+00, 
6146112.93818592,1921423.09611957,4671,2271,2271,37.26305427,-121.9280101,2018/05/08 00:00:00+00,862,TAPER AVE,S of,JANET AVE,N/S,TAPER AVE & JANET AVE,San Jose,524,338,,2021/03/18 17:05:47+00, 
6145783.05826825,1976187.21854648,4672,2272,2272,37.41343144,-121.93203644,2018/04/10 00:00:00+00,23865,TASMAN DR,E of,MORGRIDGE WY,E/W,TASMAN DR & MORGRIDGE WY,San Jose,9791,14074,,2021/03/18 17:05:47+00, 
6149381.68492925,1959555.04380564,4673,2273,2273,37.36790371,-121.91877294,2018/08/15 00:00:00+00,13235,TECHNOLOGY DR,N of,METRO DR,N/S,TECHNOLOGY DR & METRO DR,San Jose,5956,7279,,2021/03/18 17:05:47+00, 
6149360.01896209,1959483.02492081,4674,2274,2274,37.3677165,-121.91884186,2018/08/15 00:00:00+00,13098,TECHNOLOGY DR,S of,METRO DR,N/S,TECHNOLOGY DR & METRO DR,San Jose,5881,7217,,2021/03/18 17:05:47+00, 
6191945.20577316,1916242.31186172,4675,2275,2275,37.25064037,-121.77029165,2018/03/27 00:00:00+00,1070,TENNANT AVE,E of,HELLYER AVE,E/W,TENNANT AVE & HELLYER AVE,San Jose,552,518,,2021/03/18 17:05:47+00, 
6164564.96525817,1941886.32159723,4676,2276,2276,37.32001435,-121.865643,2018/03/27 00:00:00+00,19584,TENTH ST,N of,ALMA AVE,N/S,TENTH ST & ALMA AVE,San Jose,8331,11253,,2021/03/18 17:05:47+00, 
6156174.37672441,1951445.25293864,4677,2277,2277,37.3459249,-121.89498402,2018/03/27 00:00:00+00,4056,THIRD ST,N of,EMPIRE ST,N/S,THIRD ST & EMPIRE ST,San Jose,3521,535,,2021/03/18 17:05:47+00, 
6157900.09932283,1955461.56249131,4678,2278,2278,37.35702484,-121.88925304,2018/03/27 00:00:00+00,10965,THIRTEENTH ST,S of,MISSION ST,S/N,THIRTEENTH ST & MISSION ST,San Jose,5794,5171,,2021/03/18 17:05:47+00, 
6164069.66802041,1951759.5466014,4679,2279,2279,37.34710798,-121.86784398,2018/04/03 00:00:00+00,4953,TWENTY-FOURTH ST,N of,SANTA CLARA ST,N/S,TWENTY-FOURTH ST & SANTA CLARA ST,San Jose,2464,2489,,2021/03/18 17:05:47+00, 
6164955.29157725,1950590.89080223,4680,2280,2280,37.34393412,-121.86473925,2018/04/03 00:00:00+00,10156,TWENTY-FOURTH ST,S of,SAN ANTONIO ST,N/S,TWENTY-FOURTH ST & SAN ANTONIO ST,San Jose,5504,4652,,2021/03/18 17:05:47+00, 
6159424.31805916,1941399.2523614,4681,2281,2281,37.31846936,-121.88329429,2018/07/31 00:00:00+00,6729,VINE ST,N of,WILLOW ST,One Way,VINE ST & WILLOW ST,San Jose,,,,2021/03/18 17:05:47+00, 
6169032.70172949,1950651.43989372,4682,2282,2282,37.34425148,-121.850715,2018/04/03 00:00:00+00,1166,VIRGINIA PL,E of,S 34TH ST,E/W,VIRGINIA PL & S 34TH ST,San Jose,769,397,,2021/03/18 17:05:47+00, 
6168952.71501283,1950591.23857056,4683,2283,2283,37.34408305,-121.85098665,2018/04/03 00:00:00+00,797,VIRGINIA PL,W of,S 34TH ST,E/W,VIRGINIA PL & S 34TH ST,San Jose,399,398,,2021/03/18 17:05:47+00, 
6169401.66293383,1923187.32913965,4684,2284,2284,37.26885558,-121.84808338,2018/08/15 00:00:00+00,7607,VISTAPARK DR,N of,GRANDPARK CL,N/S,VISTAPARK DR & GRANDPARK CL,San Jose,3776,3831,,2021/03/18 17:05:47+00, 
6160356.23614283,1940594.65259264,4685,2285,2285,37.31628621,-121.88004782,2018/08/21 00:00:00+00,873,W HUMBOLDT ST,E of,S ALMADEN WAY,E/W,W HUMBOLDT ST & S ALMADEN WAY,San Jose,406,467,,2021/03/18 17:05:47+00, 
6160279.07356749,1940531.11892706,4686,2286,2286,37.31610858,-121.88031005,2018/08/28 00:00:00+00,982,W HUMBOLDT ST,W of,S ALMADEN WAY,E/W,W HUMBOLDT ST & S ALMADEN WAY,San Jose,490,492,,2021/03/18 17:05:47+00, 
6158563.46380974,1951718.20711714,4687,2287,2287,37.34676045,-121.886781,2018/08/22 00:00:00+00,1701,WASHINGTON ST,E of,NINTH ST,E/W,WASHINGTON ST & NINTH ST,San Jose,923,778,,2021/03/18 17:05:47+00, 
6158476.83734258,1951668.26233515,4688,2288,2288,37.34661976,-121.88707643,2018/08/22 00:00:00+00,1474,WASHINGTON ST,W of,NINTH ST,E/W,WASHINGTON ST & NINTH ST,San Jose,736,738,,2021/03/18 17:05:47+00, 
6182663.72072725,1921124.30045731,4689,2289,2289,37.26369573,-121.80242031,2018/10/02 00:00:00+00,308,WHIRLAWAY DR,E of,CARRYBACK AVE,E/W,WHIRLAWAY DR & CARRYBACK AVE,San Jose,139,169,,2021/03/18 17:05:47+00, 
6182565.77899399,1921109.73224498,4690,2290,2290,37.26365396,-121.80275833,2018/10/02 00:00:00+00,592,WHIRLAWAY DR,W of,CARRYBACK AVE,E/W,WHIRLAWAY DR & CARRYBACK AVE,San Jose,285,307,,2021/03/18 17:05:47+00, 
6159978.24706942,1945648.44268189,4691,2291,2291,37.33014932,-121.88160649,2018/05/16 00:00:00+00,4689,WILLIAM ST,E of,4TH ST,E/W,WILLIAM ST & 4TH ST,San Jose,2402,2287,,2021/03/18 17:05:47+00, 
6160294.25562374,1945829.80813281,4692,2292,2292,37.33066018,-121.88052878,2018/08/29 00:00:00+00,5848,WILLIAM ST,E of,5TH ST,E/W,WILLIAM ST & 5TH ST,San Jose,3688,2160,,2021/03/18 17:05:47+00, 
6162712.428937,1947218.36506698,4693,2293,2293,37.33457107,-121.87228262,2018/09/05 00:00:00+00,4473,WILLIAM ST,E of,THIRTEENTH ST,E/W,WILLIAM ST & THIRTEENTH ST,San Jose,2406,2067,,2021/03/18 17:05:47+00, 
6163177.49690449,1947484.77660765,4694,2294,2294,37.33532141,-121.87069671,2018/08/21 00:00:00+00,4478,WILLIAM ST,W of,15TH ST,E/W,WILLIAM ST & 15TH ST,San Jose,2526,1952,,2021/03/18 17:05:47+00, 
6164634.37095925,1948812.23097374,4695,2295,2295,37.33902554,-121.86575028,2018/08/21 00:00:00+00,4125,WILLIAM ST,W of,20TH ST,E/W,WILLIAM ST & 20TH ST,San Jose,2388,1737,,2021/03/18 17:05:47+00, 
6161760.51679882,1946671.44194824,4696,2296,2296,37.33303074,-121.87552876,2018/03/27 00:00:00+00,4038,WILLIAM ST,W of,TENTH ST,E/W,WILLIAM ST & TENTH ST,San Jose,2340,1698,,2021/03/18 17:05:47+00, 
6154795.48282866,1922604.94939889,4697,2297,2297,37.26665714,-121.89824845,2018/05/16 00:00:00+00,1155,WILLOWMONT AVE,E of,WILLOWOOD DR,E/W,WILLOWMONT AVE& WILLOWOOD DR,San Jose,644,511,,2021/03/18 17:05:47+00, 
6117388.1199795,1937552.61372922,4698,2298,2298,37.30610746,-122.02760809,2018/02/07 00:00:00+00,734,WINDSOR ST,N of,CHIALA LN,N/S,WINDSOR ST & CHIALA LN,San Jose,378,356,,2021/03/18 17:05:47+00, 
6172239.06473933,1938822.05968115,4699,2299,2299,37.31189242,-121.83910327,2018/09/05 00:00:00+00,1682,WOODMINSTER DR,E of,SHERLOCK DR,E/W,WOODMINSTER DR & SHERLOCK DR,San Jose,1136,546,,2021/03/18 17:05:47+00, 
6185500.308558,1933242.28409532,4700,2300,2300,37.29708958,-121.79325165,2018/02/06 00:00:00+00,27764,YERBA BUENA RD,E of,CHISIN ST,E/W,YERBA BUENA RD & CHISIN ST,San Jose,13228,14536,,2021/03/18 17:05:47+00, 
6191925.29308333,1934004.75632365,4701,2301,2301,37.29941696,-121.77119486,2018/05/16 00:00:00+00,10769,YERBA BUENA RD,E of,SAN FELIPE RD,E/W,YERBA BUENA RD & SAN FELIPE RD,San Jose,5333,5436,,2021/03/18 17:05:47+00, 
6182816.12626234,1934272.55532873,4702,2302,2302,37.29980946,-121.8025255,2018/02/06 00:00:00+00,27120,YERBA BUENA RD,E of,SILVER CREEK RD,E/W,YERBA BUENA RD & SILVER CREEK RD,San Jose,13195,13925,,2021/03/18 17:05:47+00, 
6183696.37975116,1933945.19016981,4703,2303,2303,37.29895366,-121.79948354,2018/02/06 00:00:00+00,27511,YERBA BUENA RD,W of,GLENGROVE WAY,E/W,YERBA BUENA RD & GLENGROVE WAY,San Jose,12931,14580,,2021/03/18 17:05:47+00, 
6191842.79620108,1933947.77349798,4704,2304,2304,37.29925757,-121.77147395,2018/04/10 00:00:00+00,27313,YERBA BUENA RD,W of,SAN FELIPE RD,E/W,YERBA BUENA RD & SAN FELIPE RD,San Jose,13800,13513,,2021/03/18 17:05:47+00, 
6153743.54431574,1955048.19291122,4705,2305,2305,37.3557078,-121.90353206,2018/09/11 00:00:00+00,2306,YOUNGER AVE,E of,SECOND ST,E/W,YOUNGER AVE & SECOND ST,San Jose,784,1522,,2021/03/18 17:05:47+00, 
6139536.9654455,1918780.52102415,4706,2306,2306,37.25551814,-121.95046465,2018/09/26 00:00:00+00,14864,BASCOM,N of,85,N/S,BASCOM&85,San Jose,4715,10149,,2021/03/18 17:05:47+00, 
6159380.49104708,1928377.89290547,4707,2307,2307,37.28269729,-121.88278571,2018/09/12 00:00:00+00,3986,KOCH,W of,ALMADEN RD,E/W,KOCH&ALMADEN RD,San Jose,1713,2273,,2021/03/18 17:05:47+00, 
6155652.01523633,1945234.90545122,4708,2308,2308,37.32883737,-121.89646192,2018/09/11 00:00:00+00,9633,PARK,E of,DELMAS,E/W,PARK&DELMAS,San Jose,7124,2509,,2021/03/18 17:05:47+00, 
6175770.90938166,1958369.63377489,4709,2309,2309,37.36572342,-121.82791604,2018/09/25 00:00:00+00,20671,WHITE RD,S of,ALUM ROCK AVE,N/S,WHITE RD&ALUM ROCK AVE,San Jose,9814,10857,,2021/03/18 17:05:47+00, 
6180758.38037783,1915583.01232731,4710,2310,2310,37.24841497,-121.80869308,2018/09/12 00:00:00+00,10072,BESWICK,S of,BANGOR,N/S,BESWICK&BANGOR,San Jose,3590,6482,,2021/03/18 17:05:47+00, 
6164539.73499367,1943234.42421597,4711,2311,2311,37.32370387,-121.86579811,2018/09/11 00:00:00+00,901,HUMBOLDT,W of,12TH,E/W,HUMBOLDT&12TH,San Jose,393,508,,2021/03/18 17:05:47+00, 
6161631.16600767,1963039.49910706,4712,2312,2312,37.37798654,-121.87680209,2018/09/25 00:00:00+00,14552,LUNDY AVE,S of,VINCI PARK,N/S,LUNDY AVE&VINCI PARK,San Jose,5646,8906,,2021/03/18 17:05:47+00, 
6142214.39283341,1961583.15228222,4713,2313,2313,37.3731799,-121.94353329,2018/09/26 00:00:00+00,29431,TRIMBLE,S of,CENTRAL EXPY,N/S,TRIMBLE&CENTRAL EXPY,San Jose,14952,14479,,2021/03/18 17:05:47+00, 
6137150.76286884,1939292.38682447,4714,2314,2314,37.31175107,-121.95976058,2018/09/12 00:00:00+00,1560,CYPRESS,N of,LINDEN OAKS,N/S,CYPRESS&LINDEN OAKS,San Jose,748,812,,2021/03/18 17:05:47+00, 
6167946.5582325,1944375.5377474,4715,2315,2315,37.32697369,-121.85413786,2018/09/11 00:00:00+00,9625,LUCRETIA,N of,WALNUT WOODS,N/S,LUCRETIA&WALNUT WOODS,San Jose,5506,4119,,2021/03/18 17:05:47+00, 
6166898.37857033,1961545.72650406,4716,2316,2316,37.37408457,-121.85859895,2018/09/25 00:00:00+00,15860,MABURY RD,E of,JACKSON AVE,E/W,MABURY RD&JACKSON AVE,San Jose,8225,7635,,2021/03/18 17:05:47+00, 
6143167.42373575,1963584.99834414,4717,2317,2317,37.37871056,-121.94036303,2018/09/26 00:00:00+00,37398,TRIMBLE,N of,101,N/S,TRIMBLE&101,San Jose,18932,18466,,2021/03/18 17:05:47+00, 
6186468.97656816,1946678.07808982,4718,2318,2318,37.33402601,-121.79054806,2018/09/26 00:00:00+00,2655,FLINT,N of,SAN RIVAS,N/S,FLINT&SAN RIVAS,San Jose,1309,1346,,2021/03/18 17:05:47+00, 
6164964.64818583,1957306.73957522,4719,2319,2319,37.3623774,-121.86504402,2018/09/25 00:00:00+00,19398,KING RD,S of,LAS PLUMAS AVE,N/S,KING RD&LAS PLUMAS AVE,San Jose,9386,10012,,2021/03/18 17:05:47+00, 
6156026.56140324,1945470.77997948,4720,2320,2320,37.32950041,-121.89518689,2018/09/11 00:00:00+00,10181,PARK,E of,WOZ,E/W,PARK&WOZ,San Jose,5415,4766,,2021/03/18 17:05:47+00, 
6142439.58595258,1962154.75776631,4721,2321,2321,37.37475462,-121.94278905,2018/09/26 00:00:00+00,46126,TRIMBLE,S of,101,N/S,TRIMBLE&101,San Jose,24207,21919,,2021/03/18 17:05:47+00, 
6193283.83761033,1913289.32957873,4722,2322,2322,37.24258984,-121.76556109,2018/10/02 00:00:00+00,3239,BASKING RIDGE,S of,VERANDA,N/S,BASKING RIDGE&VERANDA,San Jose,1550,1689,,2021/03/18 17:05:47+00, 
6166223.50984132,1955754.88637973,4723,2323,2323,37.35815488,-121.8606318,2018/10/02 00:00:00+00,24871,MCKEE RD,E of,KING RD,E/W,MCKEE RD&KING RD,San Jose,11750,13121,,2021/03/18 17:05:47+00, 
6136702.06265074,1936195.52982923,4724,2324,2324,37.30322711,-121.96113683,2018/09/12 00:00:00+00,1508,PHELPS,N of,YUBA,N/S,PHELPS&YUBA,San Jose,812,696,,2021/03/18 17:05:47+00, 
6154538.80650474,1949670.85261606,4725,2325,2325,37.34097385,-121.90052154,2018/09/11 00:00:00+00,3150,RYLAND ST,E of,SANTA TERESA ST,E/W,RYLAND & SANTA TERESA ST,San Jose,1608,1542,,2021/03/18 17:05:47+00, 
6168829.03776674,1954447.35520214,4726,2326,2326,37.35466765,-121.85160551,2018/09/25 00:00:00+00,15329,ALUM ROCK AVE,E of,SILCREEK DR,E/W,ALUM ROCK AVE&SILCREEK DR,San Jose,7121,8208,,2021/03/18 17:05:47+00, 
6157449.83152258,1922262.57180281,4727,2327,2327,37.26582559,-121.88911077,2018/10/02 00:00:00+00,1598,BRYAN,W of,MALVINI,E/W,BRYAN&MALVINI,San Jose,748,850,,2021/03/18 17:05:47+00, 
6155128.31188741,1927517.87625282,4728,2328,2328,37.2801734,-121.89735275,2018/09/12 00:00:00+00,2234,PLUMMER,N of,GARDEN GLEN,N/S,PLUMMER&GARDEN GLEN,San Jose,1091,1143,,2021/03/18 17:05:47+00, 
6154922.79261342,1950636.45534365,4729,2329,2329,37.34365249,-121.89924747,2018/09/11 00:00:00+00,2299,SAN PEDRO,S of,HAWTHORNE,N/S,SAN PEDRO&HAWTHORNE,San Jose,1399,900,,2021/03/18 17:05:47+00, 
6162450.92847575,1946281.36890948,4730,2330,2330,37.33199893,-121.87313423,2018/09/25 00:00:00+00,27847,11TH ST,S of,REED ST,N/S,11TH ST&REED ST,San Jose,18457,9390,,2021/03/18 17:05:47+00, 
6149441.47614825,1919517.1819524,4731,2331,2331,37.25796737,-121.91648038,2018/10/02 00:00:00+00,18934,CAMDEN,S of,NELSON,N/S,CAMDEN&NELSON,San Jose,8483,10451,,2021/03/18 17:05:47+00, 
6161671.02485183,1937939.97155032,4732,2332,2332,37.30904909,-121.87539326,2018/09/26 00:00:00+00,8548,SAN JOSE,E of,LITTLE ORCHARD,E/W,SAN JOSE&LITTLE ORCHARD,San Jose,4577,3971,,2021/03/18 17:05:47+00, 
6154525.77109775,1946406.08191465,4733,2333,2333,37.33201008,-121.90040189,2018/09/11 00:00:00+00,18806,SANTA CLARA,W of,AUTUMN,E/W,SANTA CLARA&AUTUMN,San Jose,6101,12705,,2021/03/18 17:05:47+00, 
6165034.4971275,1967792.05423447,4734,2334,2334,37.39117466,-121.86533022,2018/09/26 00:00:00+00,15688,CAPITOL,S of,SIERRA,N/S,CAPITOL&SIERRA,San Jose,6114,9574,,2021/03/18 17:05:47+00, 
6157407.66920532,1952100.53870156,4735,2335,2335,37.34776329,-121.89077619,2018/09/11 00:00:00+00,3100,EMPIRE,W of,7TH,E/W,EMPIRE&7TH,San Jose,2031,1069,,2021/03/18 17:05:47+00, 
6166558.34250499,1948494.20765965,4736,2336,2336,37.33824035,-121.8591204,2018/09/25 00:00:00+00,17668,MCLAUGHLIN AVE,N of,MELBOURNE BLVD,N/S,MCLAUGHLIN AVE&MELBOURNE BLVD,San Jose,8596,9072,,2021/03/18 17:05:47+00, 
6181209.72593182,1957616.55621281,4737,2337,2337,37.36385629,-121.80917171,2018/10/03 00:00:00+00,5874,STORY,E of,WATTERS,E/W,STORY&WATTERS,San Jose,2800,3074,,2021/03/18 17:05:47+00, 
6166693.216251,1953217.22774115,4738,2338,2338,37.35120455,-121.85889152,2018/09/25 00:00:00+00,14511,ALUM ROCK AVE,E of,33RD ST,E/W,ALUM ROCK AVE&33RD ST,San Jose,7244,7267,,2021/03/18 17:05:47+00, 
6143059.220212,1916083.47687756,4739,2339,2339,37.24826231,-121.93823342,2018/10/02 00:00:00+00,3472,CARLTON,E of,COOPER,E/W,CARLTON&COOPER,San Jose,1738,1734,,2021/03/18 17:05:47+00, 
6170274.90364142,1941277.80608198,4740,2340,2340,37.3185703,-121.84598073,2018/09/11 00:00:00+00,9609,LUCRETIA,S of,TAJI,N/S,LUCRETIA&TAJI,San Jose,5541,4068,,2021/03/18 17:05:47+00, 
6164464.80535349,1948673.14529389,4741,2341,2341,37.33863677,-121.86632658,2018/10/02 00:00:00+00,3717,WILLIAMS,E of,19TH,E/W,WILLIAMS&19TH,San Jose,2107,1610,,2021/03/18 17:05:47+00, 
6157074.26731308,1937340.85923147,4742,2342,2342,37.30722852,-121.89116937,2018/09/12 00:00:00+00,11740,BIRD,S of,MINNESOTA,N/S,BIRD&MINNESOTA,San Jose,5740,6000,,2021/03/18 17:05:47+00, 
6166263.38574582,1901956.68426506,4743,2343,2343,37.21042505,-121.85780485,2018/10/02 00:00:00+00,1348,ELWOOD,N of,OLIVE BRANCH,N/S,ELWOOD&OLIVE BRANCH,San Jose,688,660,,2021/03/18 17:05:47+00, 
6166680.31240541,1955063.57575448,4744,2344,2344,37.3562859,-121.85902896,2018/09/25 00:00:00+00,14092,KING RD,S of,ST JAMES ST,N/S,KING RD&ST JAMES ST,San Jose,7387,6705,,2021/03/18 17:05:47+00, 
6172617.1591275,1963459.42346406,4745,2345,2345,37.37957754,-121.83901681,2018/09/11 00:00:00+00,15276,WHITE,S of,PATT,N/S,WHITE&PATT,San Jose,6909,8367,,2021/03/18 17:05:47+00, 
6116025.40846609,1936782.83967823,4746,2346,2346,37.30393214,-122.03224931,2018/10/02 00:00:00+00,34951,DE ANZA,N of,KENTWOOD,N/S,DE ANZA&KENTWOOD,San Jose,17967,16984,,2021/03/18 17:05:47+00, 
6150508.06325391,1934171.00960006,4747,2347,2347,37.29825022,-121.9135707,2018/10/02 00:00:00+00,26632,MERIDIAN,N of,BLACKFORD,N/S,MERIDIAN&BLACKFORD,San Jose,13583,13049,,2021/03/18 17:05:47+00, 
6163299.25945625,1951267.53446206,4748,2348,2348,37.34571442,-121.87046832,2018/09/25 00:00:00+00,16808,SANTA CLARA ST,E of,21ST ST,E/W,SANTA CLARA ST&21ST ST,San Jose,9243,7565,,2021/03/18 17:05:47+00, 
6139023.41102642,1918027.31944656,4749,2349,2349,37.25342788,-121.9521888,2018/09/26 00:00:00+00,17196,BASCOM,S of,85,N/S,BASCOM&85,San Jose,15137,2059,,2021/03/18 17:05:47+00, 
6173624.34444907,1957139.23170814,4750,2350,2350,37.36226051,-121.83524221,2018/09/26 00:00:00+00,20328,CAPITOL AVE,S of,ALUM ROCK AVE,N/S,CAPITOL AVE&ALUM ROCK AVE,San Jose,11090,9238,,2021/03/18 17:05:47+00, 
6161503.68955658,1913745.8056999,4751,2351,2351,37.24260377,-121.87475448,2018/09/12 00:00:00+00,24258,COLEMAN RD,E of,ALMADEN EXPY,E/W,COLEMAN RD&ALMADEN EXPY,San Jose,11210,13048,,2021/03/18 17:05:47+00, 
6155568.43633525,1945180.09092832,4752,2352,2352,37.32868336,-121.89674657,2018/09/11 00:00:00+00,7028,PARK,W of,DELMAS,E/W,PARK&DELMAS,San Jose,3822,3206,,2021/03/18 17:05:47+00, 
6160225.004778,1949437.08044581,4753,2353,2353,37.34057511,-121.88094921,2018/09/12 00:00:00+00,12596,10TH,S of,SANTA CLARA,One Way,10TH&SANTA CLARA,San Jose,,,,2021/03/18 17:05:47+00, 
6163268.50558075,1969886.7682209,4754,2354,2354,37.39684497,-121.87151057,2018/09/26 00:00:00+00,21466,HOSTETTER,E of,CAPITOL,E/W,HOSTETTER&CAPITOL,San Jose,11003,10463,,2021/03/18 17:05:47+00, 
6146777.54742099,1924352.54826589,4755,2355,2355,37.27113435,-121.92588322,2018/10/02 00:00:00+00,2396,NEW JERSEY,N of,ABINANTE,N/S,NEW JERSEY&ABINANTE,San Jose,873,1523,,2021/03/18 17:05:47+00, 
6161383.57857633,1950165.69906731,4756,2356,2356,37.34261136,-121.87700201,2018/09/25 00:00:00+00,15372,SANTA CLARA S,E of,14TH ST,E/W,SANTA CLARA S&14TH ST,San Jose,8806,6566,,2021/03/18 17:05:47+00, 
6163651.65442075,1943474.83449632,4757,2357,2357,37.32433996,-121.86886292,2018/09/26 00:00:00+00,18293,10TH,N of,KEYES,One Way,10TH&KEYES,San Jose,,,,2021/03/18 17:05:47+00, 
6159860.9917265,1950071.31572589,4758,2358,2358,37.34230206,-121.88223341,2018/09/25 00:00:00+00,10399,10TH ST,N of,ST JOHN ST,One Way,10TH ST&ST JOHN ST,San Jose,,,,2021/03/18 17:05:47+00, 
6160247.5578825,1942879.62177598,4759,2359,2359,37.32255671,-121.88053749,2018/09/26 00:00:00+00,35656,HOSTETTER,W of,FOUR OAKS,E/W,HOSTETTER&FOUR OAKS,San Jose,16806,18850,,2021/03/18 17:05:47+00, 
6166720.39008117,1915426.57235149,4760,2360,2360,37.24743186,-121.85691979,2018/10/02 00:00:00+00,4668,STEINBECK,W of,WIND RIDGE,E/W,STEINBECK&WIND RIDGE,San Jose,2086,2582,,2021/03/18 17:05:47+00, 
6160533.27548692,1949614.60305664,4761,2361,2361,37.3410751,-121.87989788,2018/09/12 00:00:00+00,12368,11TH,S of,SANTA CLARA,One Way,11TH&SANTA CLARA,San Jose,,,,2021/03/18 17:05:47+00, 
6156203.16013141,1964848.84391356,4762,2362,2362,37.38272711,-121.89557994,2018/09/26 00:00:00+00,39057,MURPHY,E of,OAKLAND,E/W,MURPHY&OAKLAND,San Jose,21444,17613,,2021/03/18 17:05:47+00, 
6159626.08602832,1949154.69059065,4763,2363,2363,37.33976378,-121.88299557,2018/09/25 00:00:00+00,15670,SANTA CLARA ST,E of,8TH ST,E/W,SANTA CLARA ST&8TH ST,San Jose,6945,8725,,2021/03/18 17:05:47+00, 
6177816.29111767,1930546.8291844,4764,2364,2364,37.28938503,-121.81952501,2018/09/26 00:00:00+00,14214,YERBA BUENA,E of,BROCK,E/W,YERBA BUENA&BROCK,San Jose,7194,7020,,2021/03/18 17:05:47+00, 
6163956.35394257,1943660.58478098,4765,2365,2365,37.32486233,-121.86782504,2018/09/26 00:00:00+00,19735,11TH,N of,KEYES,One Way,11TH&KEYES,San Jose,,,,2021/03/18 17:05:47+00, 
6154299.72266532,1927033.84342822,4766,2366,2366,37.27881019,-121.90017626,2018/10/02 00:00:00+00,1778,BOOKSIN,N of,GARDEN GLEN,N/S,BOOKSIN&GARDEN GLEN,San Jose,1040,738,,2021/03/18 17:05:47+00, 
6165362.38164233,1950902.33506122,4767,2367,2367,37.34479428,-121.8633535,2018/10/02 00:00:00+00,5879,SAN ANTONIO,E of,26TH ST,E/W,SAN ANTONIO&26TH ST,San Jose,3029,2850,,2021/03/18 17:05:47+00, 
6155649.32921807,1942059.95346782,4768,2368,2368,37.32012196,-121.89631549,2018/09/12 00:00:00+00,4798,VIRGINIA,E of,ILLINOIS,E/W,VIRGINIA&ILLINOIS,San Jose,2367,2431,,2021/03/18 17:05:47+00, 
6160917.95188291,1948946.4282119,4769,2369,2369,37.33925574,-121.8785409,2018/09/25 00:00:00+00,15901,11TH ST,S of,SAN FERNANDO ST,One Way,11TH ST&SAN FERNANDO ST,San Jose,,,,2021/03/18 17:05:47+00, 
6160172.77391133,1931861.00634606,4770,2370,2370,37.29229584,-121.8802422,2018/10/02 00:00:00+00,18766,CURTNER,W of,ALMADEN EX,E/W,CURTNER&ALMADEN EX,San Jose,8897,9869,,2021/03/18 17:05:47+00, 
6160283.3609605,1953753.86446315,4771,2371,2371,37.35242055,-121.88096833,2018/09/11 00:00:00+00,2213,EMPIRE,W of,17TH,E/W,EMPIRE&17TH,San Jose,1211,1002,,2021/03/18 17:05:47+00, 
6162809.86673425,1969508.05145864,4772,2372,2372,37.39578657,-121.87306972,2018/09/26 00:00:00+00,29759,HOSTETTER,E of,680,E/W,HOSTETTER&680,San Jose,15018,14741,,2021/03/18 17:05:47+00, 
6144329.48998116,1916070.83353014,4773,2373,2373,37.24828113,-121.93386914,2018/10/02 00:00:00+00,3973,CARLTON,E of,BEL ESTOS,E/W,CARLTON&BEL ESTOS,San Jose,1928,2045,,2021/03/18 17:05:47+00, 
6162161.11343858,1968955.31109431,4774,2374,2374,37.3942425,-121.87527472,2018/09/26 00:00:00+00,39802,HOSTETTER,W of,680,E/W,HOSTETTER&680,San Jose,19016,20786,,2021/03/18 17:05:47+00, 
6171964.62499949,1954702.19754022,4775,2375,2375,37.35549136,-121.84083108,2018/09/25 00:00:00+00,13937,SAN ANTONIO,W of,JACKSON,E/W,SAN ANTONIO&JACKSON,San Jose,7641,6296,,2021/03/18 17:05:47+00, 
6168455.43943258,1952675.32298507,4776,2376,2376,37.34978657,-121.85280341,2018/10/02 00:00:00+00,8845,SAN ANTONIO,W of,KING,E/W,SAN ANTONIO&KING,San Jose,4230,4615,,2021/03/18 17:05:47+00, 
6159446.67661025,1955304.31641473,4777,2377,2377,37.35665596,-121.88392462,2018/10/02 00:00:00+00,2715,17TH ST,S of,TAYLOR ST,N/S,17TH ST&TAYLOR ST,San Jose,1217,1498,,2021/03/18 17:05:47+00, 
6164753.55149516,1899988.21182406,4778,2378,2378,37.20495564,-121.86290385,2018/10/02 00:00:00+00,492,ECHO VALLEY,E of,WEBB CANYON,E/W,ECHO VALLEY&WEBB CANYON,San Jose,264,228,,2021/03/18 17:05:47+00, 
6171964.62499949,1954702.19754022,4779,2379,2379,37.35549136,-121.84083108,2018/09/11 00:00:00+00,13865,SAN ANTONIO,W of,JACKSON,E/W,SAN ANTONIO&JACKSON,San Jose,7569,6296,,2021/03/18 17:05:47+00, 
6131877.506355,1938064.83317722,4780,2380,2380,37.30815322,-121.97783684,2018/09/12 00:00:00+00,9424,WILLIAMS,W of,SARATOGA,E/W,WILLIAMS&SARATOGA,San Jose,5068,4356,,2021/03/18 17:05:47+00, 
6173789.53834441,1954680.19922465,4781,2381,2381,37.35550621,-121.8345584,2018/09/11 00:00:00+00,57107,CAPITOL EXPY,E of,MASSAR,E/W,CAPITOL EXPY&MASSAR,San Jose,28030,29077,,2021/03/18 17:05:47+00, 
6159750.42731509,1958779.43446448,4782,2382,2382,37.3662106,-121.88306069,2018/10/02 00:00:00+00,18288,COMMERCIAL ST,N of,BERRYESSA RD,N/S,COMMERCIAL ST&BERRYESSA RD,San Jose,10623,7665,,2021/03/18 17:05:47+00, 
6165946.7630195,1899814.18625347,4783,2383,2383,37.2045235,-121.85878479,2018/10/02 00:00:00+00,489,ELWOOD,N of,ECHO VALLEY,N/S,ELWOOD&ECHO VALLEY,San Jose,191,298,,2021/03/18 17:05:47+00, 
6162976.36180808,1945257.24497348,4784,2384,2384,37.32920347,-121.87126869,2018/09/12 00:00:00+00,37585,11TH,N of,280,N/S,11TH&280,San Jose,19312,18273,,2021/03/18 17:05:47+00, 
6159749.501792,1958715.27055082,4785,2385,2385,37.36602426,-121.88305365,2018/09/26 00:00:00+00,13329,BERRYESSA RD,W of,COMMERCIAL ST,E/W,BERRYESSA RD&COMMERCIAL ST,San Jose,6472,6857,,2021/03/18 17:05:47+00, 
6155781.36176242,1948379.00972731,4786,2386,2386,37.33747685,-121.89617938,2018/10/02 00:00:00+00,11467,ST JAMES,W of,TERRAINE,E/W,ST JAMES&TERRAINE,San Jose,7869,3598,,2021/03/18 17:05:47+00, 
6154433.87528417,1921392.33240156,4787,2387,2387,37.26331227,-121.89942873,2018/10/02 00:00:00+00,1564,JACOB,E of,DUGGAN,E/W,JACOB&DUGGAN,San Jose,711,853,,2021/03/18 17:05:47+00, 
6165497.01687175,1960382.58316106,4788,2388,2388,37.37083473,-121.86336179,2018/09/25 00:00:00+00,13792,MABURY RD,W of,EDUCATIONAL PARK DR,E/W,MABURY RD&EDUCATIONAL PARK DR,San Jose,7029,6763,,2021/03/18 17:05:47+00, 
6152415.96659033,1956555.17119648,4789,2389,2389,37.35979989,-121.90818278,2018/10/02 00:00:00+00,27722,1ST,N of,880,N/S,1ST&880,San Jose,9942,17780,,2021/03/18 17:05:47+00, 
6161403.78522883,1913748.09604965,4790,2390,2390,37.24260638,-121.87509799,2018/09/12 00:00:00+00,11312,COLEMAN,W of,ALMADEN EXPY,E/W,COLEMAN&ALMADEN EXPY,San Jose,6567,4745,,2021/03/18 17:05:47+00, 
6173544.05523957,1961792.61150898,4791,2391,2391,37.3750251,-121.835744,2018/10/02 00:00:00+00,28186,MCKEE RD,W of,WHITE RD,E/W,MCKEE RD&WHITE RD,San Jose,13847,14339,,2021/03/18 17:05:47+00, 
6166306.29510882,1952994.17306915,4792,2392,2392,37.35057656,-121.86021132,2018/09/11 00:00:00+00,21654,SANTA CLARA,E of,101 RAMP,E/W,SANTA CLARA&101 RAMP,San Jose,9858,11796,,2021/03/18 17:05:47+00, 
6157948.62973759,1953396.64339282,4793,2393,2393,37.35135621,-121.88898077,2018/09/25 00:00:00+00,9639,10TH ST,S of,JACKSON ST,One Way,10TH ST&JACKSON ST,San Jose,,,,2021/03/18 17:05:47+00, 
6152966.44121116,1919212.45126265,4794,2394,2394,37.25727574,-121.90435136,2018/10/02 00:00:00+00,2535,KIRK,N of,SWANGATE,N/S,KIRK&SWANGATE,San Jose,1402,1133,,2021/03/18 17:05:47+00, 
6150476.95996967,1930181.9893629,4795,2395,2395,37.2872945,-121.91347054,2018/10/02 00:00:00+00,23125,MERIDIAN,N of,CAMPBELL,N/S,MERIDIAN&CAMPBELL,San Jose,12106,11019,,2021/03/18 17:05:47+00, 
6162896.96006399,1947323.8468114,4796,2396,2396,37.33486817,-121.87165334,2018/09/25 00:00:00+00,4364,WILLIAM ST,W of,14TH ST,E/W,WILLIAM ST&14TH ST,San Jose,2417,1947,,2021/03/18 17:05:47+00, 
6180620.31405291,1950337.20823874,4797,2397,2397,37.34384142,-121.81084588,2018/10/02 00:00:00+00,18425,OCALA,W of,WOODRIDGE,E/W,OCALA&WOODRIDGE,San Jose,9179,9246,,2021/03/18 17:05:47+00, 
6160549.29185908,1952859.50240673,4798,2398,2398,37.34997526,-121.88000816,2018/09/25 00:00:00+00,1871,WASHINGTON ST,E of,16TH ST,E/W,WASHINGTON ST&16TH ST,San Jose,970,901,,2021/03/18 17:05:47+00, 
6157391.17186299,1956655.48267564,4799,2399,2399,37.36028079,-121.89105993,2018/09/26 00:00:00+00,22316,OAKLAND RD,N of,MADERA AVE,N/S,OAKLAND RD&MADERA AVE,San Jose,11366,10950,,2021/03/18 17:05:47+00, 
6182355.4270525,1923174.54143557,4800,2400,2400,37.26932379,-121.80356941,2018/10/02 00:00:00+00,1025,SNOW,S of,WAR ADMIRAL,N/S,SNOW&WAR ADMIRAL,San Jose,600,425,,2021/03/18 17:05:47+00, 
6169277.44008516,1958264.65695073,4801,2401,2401,37.36516868,-121.8502498,2018/10/02 00:00:00+00,30626,MCKEE RD,W of,JACKSON AVE,E/W,MCKEE RD&JACKSON AVE,San Jose,14643,15983,,2021/03/18 17:05:47+00, 
6141188.96279766,1941216.9357969,4802,2402,2402,37.3172026,-121.94599161,2018/10/02 00:00:00+00,6938,TISCH,E of,HATTON,E/W,TISCH&HATTON,San Jose,3183,3755,,2021/03/18 17:05:47+00, 
6159995.02525108,1955620.42372215,4803,2403,2403,37.35754629,-121.88205422,2018/10/02 00:00:00+00,12140,TAYLOR ST,S of,19TH ST,E/W,TAYLOR ST&19TH ST,San Jose,6403,5737,,2021/03/18 17:05:47+00, 
6179660.02627534,1930771.58857739,4804,2404,2404,37.29008074,-121.81320865,2018/09/26 00:00:00+00,150,TUERS,W of,CLAYBURN,E/W,TUERS&CLAYBURN,San Jose,89,61,,2021/03/18 17:05:47+00, 
6174384.58702308,1922072.56102797,4805,2405,2405,37.26598203,-121.83091563,2018/09/26 00:00:00+00,17050,BRANHAM,E of,SNELL,E/W,BRANHAM&SNELL,San Jose,9074,7976,,2021/03/18 17:05:47+00, 
6165784.159014,1963003.86532006,4806,2406,2406,37.37805557,-121.86250951,2018/09/25 00:00:00+00,14319,JACKSON AVE,N of,COMMODORE DR,N/S,JACKSON AVE&COMMODORE DR,San Jose,8082,6237,,2021/03/18 17:05:47+00, 
6161473.25556234,1947267.59101839,4807,2407,2407,37.33466782,-121.87654614,2018/09/25 00:00:00+00,16673,10TH ST,N of,SAN SALVADOR ST,One Way,10TH ST&SAN SALVADOR ST,San Jose,,,,2021/03/18 17:05:47+00, 
6177085.07079533,1922675.69236764,4808,2408,2408,37.26774125,-121.82165554,2018/09/26 00:00:00+00,11191,BRANHAM,E of,MONTEREY,E/W,BRANHAM&MONTEREY,San Jose,5807,5384,,2021/03/18 17:05:47+00, 
6181742.9715845,1927541.84798965,4809,2409,2409,37.281292,-121.80589384,2018/09/26 00:00:00+00,6259,HELLYER,S of,DOVE,N/S,HELLYER&DOVE,San Jose,3216,3043,,2021/03/18 17:05:47+00, 
6164155.16227199,1934651.06244573,4810,2410,2410,37.3001284,-121.86669065,2018/09/26 00:00:00+00,11542,LITTLE ORCHARD,N of,CURTNER,N/S,LITTLE ORCHARD&CURTNER,San Jose,5461,6081,,2021/03/18 17:05:47+00, 
6168508.15061325,1959330.56197114,4811,2412,2412,37.3680765,-121.85295334,2018/09/25 00:00:00+00,14903,JACKSON AVE,N of,LANNING WAY,N/S,JACKSON AVE&LANNING WAY,San Jose,7174,7729,,2021/03/18 17:05:47+00, 
6148129.48927091,1937321.79726173,4812,2413,2413,37.30680696,-121.92191641,2018/09/12 00:00:00+00,7915,LEIGH,N of,SOUTHWEST EXPY,N/S,LEIGH&SOUTHWEST EXPY,San Jose,3207,4708,,2021/03/18 17:05:47+00, 
6165454.54418766,1952504.82234181,4813,2414,2414,37.34919868,-121.86311676,2018/09/11 00:00:00+00,22022,SANTA CLARA,W of,101 RAMP,E/W,SANTA CLARA&101 RAMP,San Jose,12106,9916,,2021/03/18 17:05:47+00, 
6158966.04699408,1966531.01574606,4814,2415,2415,37.38746679,-121.88615104,2018/09/26 00:00:00+00,15688,LUNDY,N of,MURPHY,N/S,LUNDY&MURPHY,San Jose,7945,7743,,2021/03/18 17:05:47+00, 
6131327.77385867,1936106.46012548,4815,2416,2416,37.30274813,-121.97962107,2018/10/02 00:00:00+00,13603,SAN TOMAS AQUINAS,S of,SARATOGA,N/S,SAN TOMAS AQUINAS&SARATOGA,San Jose,5924,7679,,2021/03/18 17:05:47+00, 
6174327.42604816,1916770.87117206,4816,2417,2417,37.25142556,-121.83084009,2018/09/19 00:00:00+00,26156,SNELL,N of,BLOSSOM HILL,N/S,SNELL&BLOSSOM HILL,San Jose,12585,13571,,2021/03/18 17:05:47+00, 
6146397.77423042,1935312.2389449,4817,2418,2418,37.30120613,-121.92776119,2018/09/26 00:00:00+00,5939,SOUTHWEST EXPY,S of,STOKES,N/S,SOUTHWEST EXPY&STOKES,San Jose,4744,1195,,2021/03/18 17:05:47+00, 
6126388.10919733,1938704.10486457,4818,2419,2419,37.30966506,-121.99674463,2018/10/02 00:00:00+00,21751,BOLLINGER,W of,LAWRENCE EXPY,E/W,BOLLINGER&LAWRENCE EXPY,San Jose,11453,10298,,2021/03/18 17:05:47+00, 
6181503.288993,1940202.63828482,4819,2420,2420,37.31604978,-121.80732633,2018/09/26 00:00:00+00,10274,NIEMAN,S of,CAPITOL EX,N/S,NIEMAN&CAPITOL EX,San Jose,5137,5137,,2021/03/18 17:05:47+00, 
6174320.24922524,1911421.91238181,4820,2421,2421,37.23673602,-121.8306035,2018/10/02 00:00:00+00,7346,SNELL,S of,SANTA TERESA,N/S,SNELL&SANTA TERESA,San Jose,3505,3841,,2021/03/18 17:05:47+00, 
6183601.11780258,1947284.88888407,4821,2422,2422,37.33557439,-121.80044921,2018/09/26 00:00:00+00,17738,TULLY,E of,WHITE,E/W,TULLY&WHITE,San Jose,8692,9046,,2021/03/18 17:05:47+00, 
6152441.11909908,1956513.20047989,4822,2423,2423,37.35968875,-121.90808761,2018/10/02 00:00:00+00,18657,1ST,N of,BAYSHORE FWY,N/S,1ST&BAYSHORE FWY,San Jose,6648,12009,,2021/03/18 17:05:47+00, 
6173637.12263875,1957207.62330365,4823,2424,2424,37.36243741,-121.83520058,2018/09/26 00:00:00+00,23765,ALUM ROCK AVE,E of,CAPITOL AVE,E/W,ALUM ROCK AVE&CAPITOL AVE,San Jose,10373,13392,,2021/03/18 17:05:47+00, 
6148176.26509599,1937233.35682181,4824,2426,2426,37.30656606,-121.92175137,2018/09/12 00:00:00+00,15045,LEIGH,S of,SOUTHWEST EXPY,N/S,LEIGH&SOUTHWEST EXPY,San Jose,6967,8078,,2021/03/18 17:05:47+00, 
6150076.78786975,1960608.52791914,4825,2427,2427,37.37083717,-121.91643509,2018/10/02 00:00:00+00,18506,1ST,S of,BAYSHORE FWY,N/S,1ST&BAYSHORE FWY,San Jose,9920,8586,,2021/03/18 17:05:47+00, 
6175168.84070392,1949457.14339781,4826,2428,2428,37.3412244,-121.82955297,2018/09/26 00:00:00+00,3793,ADRIAN,N of,SULLIVAN,N/S,ADRIAN&SULLIVAN,San Jose,1908,1885,,2021/03/18 17:05:47+00, 
6155633.06875192,1948297.49414231,4827,2429,2429,37.33724699,-121.89668597,2018/09/11 00:00:00+00,16683,JULIAN ST,E of,87,E/W,JULIAN ST&87,San Jose,10536,6147,,2021/03/18 17:05:47+00, 
6168530.2814745,1952653.68917006,4828,2430,2430,37.34974158,-121.8525442,2018/09/25 00:00:00+00,15333,KING RD,S of,SAN ANTONIO ST,N/S,KING RD&SAN ANTONIO ST,San Jose,7807,7526,,2021/03/18 17:05:47+00, 
6183526.60023507,1951317.41887672,4829,2431,2431,37.34665478,-121.80089764,2018/09/26 00:00:00+00,4041,FLINT,S of,COLDWATER,N/S,FLINT&COLDWATER,San Jose,2099,1942,,2021/03/18 17:05:47+00, 
6157474.92924142,1956326.65295273,4830,2432,2432,37.35937164,-121.89076054,2018/09/25 00:00:00+00,15539,HEDDING ST,E of,13TH ST,E/W,HEDDING ST&13TH ST,San Jose,7341,8198,,2021/03/18 17:05:47+00, 
6159699.61212799,1975920.67314781,4831,2433,2433,37.41327102,-121.88410664,2018/09/19 00:00:00+00,44879,LANDESS,W of,680,E/W,LANDESS&680,San Jose,21149,23730,,2021/03/18 17:05:47+00, 
6154925.98420808,1959021.3431014,4832,2434,2434,37.36667724,-121.89967333,2018/09/11 00:00:00+00,10845,OLD BAYSHORE,E of,880,E/W,OLD BAYSHORE&880,San Jose,4972,5873,,2021/03/18 17:05:47+00, 
6166741.63839824,1914085.4113199,4833,2435,2435,37.24374824,-121.85676564,2018/09/12 00:00:00+00,3355,ALLEN,N of,CALERO,N/S,ALLEN&CALERO,San Jose,1677,1678,,2021/03/18 17:05:47+00, 
6160878.88896891,1959960.83466072,4834,2436,2436,37.36949062,-121.87923086,2018/09/25 00:00:00+00,23222,BERRYESSA RD,E of,SIERRA RD,E/W,BERRYESSA RD&SIERRA RD,San Jose,11057,12165,,2021/03/18 17:05:47+00, 
6161751.253694,1976671.71528089,4835,2437,2437,37.41541674,-121.8770816,2018/09/19 00:00:00+00,34873,LANDESS,E of,680,E/W,LANDESS&680,San Jose,19416,15457,,2021/03/18 17:05:47+00, 
6153705.72877458,1959517.42708299,4836,2438,2438,37.36798562,-121.90389959,2018/09/11 00:00:00+00,18174,OLD BAYSHORE,W of,880,E/W,OLD BAYSHORE&880,San Jose,8486,9688,,2021/03/18 17:05:47+00, 
6154574.13189341,1946456.24093506,4837,2439,2439,37.33215501,-121.90022529,2018/09/11 00:00:00+00,3931,AUTUMN,N of,SANTA CLARA,N/S,AUTUMN&SANTA CLARA,San Jose,2515,1416,,2021/03/18 17:05:47+00, 
6162783.24703683,1937908.89746548,4838,2440,2440,37.30900852,-121.8715683,2018/09/26 00:00:00+00,1670,BARNARD,E of,POMONA,E/W,BARNARD&POMONA,San Jose,828,842,,2021/03/18 17:05:47+00, 
6163335.05072324,1962301.34244689,4839,2441,2441,37.37601801,-121.87089606,2018/09/25 00:00:00+00,26857,BERRYESSA RD,N of,JUNESONG WAY,N/S,BERRYESSA RD&JUNESONG WAY,San Jose,12553,14304,,2021/03/18 17:05:47+00, 
6142228.84096725,1961682.69309364,4840,2442,2442,37.37345202,-121.94348843,2018/09/26 00:00:00+00,46126,TRIMBLE,N of,CENTRAL EXPY,N/S,TRIMBLE&CENTRAL EXPY,San Jose,24207,21919,,2021/03/18 17:05:47+00, 
6158695.52522542,1949348.21382564,4841,2443,2443,37.34025742,-121.88620603,2018/01/31 00:00:00+00,3003,ST JOHN,E of,6TH ST,E/W,ST JOHN&6TH ST,San Jose,1489,1514,,2021/03/18 17:05:47+00, 
6159843.03966266,1950007.65640439,4842,2444,2444,37.34211498,-121.88229271,2018/01/31 00:00:00+00,3054,ST JOHN,W of,10TH ST,E/W,ST JOHN&10TH ST,San Jose,1626,1428,,2021/03/18 17:05:47+00, 
6164201.2350145,1950084.24549006,4843,2445,2445,37.34250123,-121.86730453,2018/01/31 00:00:00+00,3549,SAN ANTONIO,E of,21ST ST,E/W,SAN ANTONIO&21ST ST,San Jose,1691,1858,,2021/03/18 17:05:47+00, 
6166226.08398317,1951289.74078248,4844,2446,2446,37.34589456,-121.86040696,2018/01/31 00:00:00+00,9060,SAN ANTONIO,E of,BONITA AVE,E/W,SAN ANTONIO&BONITA AVE,San Jose,4164,4896,,2021/03/18 17:05:47+00, 
6158748.27118291,1945646.29045522,4845,2447,2447,37.33009345,-121.88583601,2018/01/31 00:00:00+00,3611,SAN SALVADOR,E of,1ST ST,E/W,SAN SALVADOR&1ST ST,San Jose,1501,2110,,2021/03/18 17:05:47+00, 
6158682.43240383,1947707.35818347,4846,2448,2448,37.33575084,-121.88616755,2018/01/31 00:00:00+00,9957,SAN FERNANDO,W of,4TH ST,E/W,SAN FERNANDO&4TH ST,San Jose,6026,3931,,2021/03/18 17:05:47+00, 
6158764.81347266,1947763.96502565,4847,2449,2449,37.33590962,-121.88588693,2018/01/31 00:00:00+00,9646,SAN FERNANDO,E of,4TH ST,E/W,SAN FERNANDO&4TH ST,San Jose,4417,5229,,2021/03/18 17:05:47+00, 
6157991.73890333,1948997.5560624,4848,2450,2450,37.33927734,-121.8886079,2018/01/31 00:00:00+00,6671,4TH ST,N of,ST JOHN ST,One Way,4TH ST&ST JOHN ST,San Jose,,,,2021/03/18 17:05:47+00, 
6158307.17495225,1948449.43019015,4849,2451,2451,37.33778494,-121.88749506,2018/01/31 00:00:00+00,7875,4TH ST,N of,SANTA CLARA ST,One Way,4TH ST&SANTA CLARA ST,San Jose,,,,2021/03/18 17:05:47+00, 
6158436.94437775,1947506.18601364,4850,2452,2452,37.33519991,-121.88700046,2018/01/31 00:00:00+00,11036,3RD ST,S of,SAN FERNANDO,One Way,3RD ST&SAN FERNANDO,San Jose,,,,2021/03/18 17:05:47+00, 
6159988.67946325,1946365.60791422,4851,2453,2453,37.33211922,-121.88160722,2018/01/31 00:00:00+00,10023,SAN SALVADOR,E of,5TH ST,E/W,SAN SALVADOR&5TH ST,San Jose,3496,6527,,2021/03/18 17:05:47+00, 
6156657.99452358,1948241.4040314,4852,2454,2454,37.33713888,-121.89316376,2018/01/31 00:00:00+00,4771,ST JOHN,E of,MARKET ST,E/W,ST JOHN&MARKET ST,San Jose,1763,3008,,2021/03/18 17:05:47+00, 
6157751.4290165,1948806.32022439,4853,2455,2455,37.33873084,-121.88942551,2018/01/31 00:00:00+00,4911,ST JOHN,E of,3RD ST,E/W,ST JOHN&3RD ST,San Jose,2949,1962,,2021/03/18 17:05:47+00, 
6185562.52267241,1939293.59974857,4854,2456,2456,37.31370346,-121.79332378,2006/10/18 00:00:00+00,40744,Aborn Rd,W of,White Rd, ,Aborn Rd & White Rd,San Jose,,,,2021/03/18 17:05:47+00, 
6186179.00667566,1939242.01356564,4855,2457,2457,37.31359504,-121.79119778,2006/10/18 00:00:00+00,31665,San Felipe Rd,S of,White Rd, ,San Felipe Rd & White Rd,San Jose,,,,2021/03/18 17:05:47+00, 
6164453.43267283,1921286.54914856,4856,2458,2458,37.26343852,-121.86499057,2005/09/26 00:00:00+00,16244,Pearl Av,N of,Adamo Dr, ,Pearl Av & Adamo Dr,San Jose,,,,2021/03/18 17:05:47+00, 
6176197.98300257,1947899.99132839,4857,2459,2459,37.33697709,-121.82593364,2005/10/12 00:00:00+00,15957,Ocala Av,W of,Adrian Wy, ,Ocala Av & Adrian Wy,San Jose,,,,2021/03/18 17:05:47+00, 
6176405.58330916,1948075.70751239,4858,2460,2460,37.33746768,-121.82522833,2005/10/12 00:00:00+00,14833,Ocala Av,E of,Adrian Wy, ,Ocala Av & Adrian Wy,San Jose,,,,2021/03/18 17:05:47+00, 
6170218.55598508,1931653.67638014,4859,2461,2461,37.29212717,-121.84569519,2006/07/10 00:00:00+00,6240,Lewis Rd,W of,Aiello Dr, ,Lewis Rd & Aiello Dr,San Jose,,,,2021/03/18 17:05:47+00, 
6128714.15703866,1933264.45202997,4860,2462,2462,37.29482515,-121.98843954,2005/05/23 00:00:00+00,30692,Saratoga Av,S of,Atherton Av, ,Saratoga Av & Atherton Av,San Jose,,,,2021/03/18 17:05:47+00, 
6128850.05112383,1933407.66237348,4861,2463,2463,37.29522441,-121.98798014,2005/05/23 00:00:00+00,33546,Saratoga Av,N of,Atherton Av, ,Saratoga Av & Atherton Av,San Jose,,,,2021/03/18 17:05:47+00, 
6128885.37782483,1933244.95042856,4862,2464,2464,37.29478909,-121.98785718,2005/05/23 00:00:00+00,5021,Atherton Av,E of,Saratoga Av, ,Atherton Av & Saratoga Av,San Jose,,,,2021/03/18 17:05:47+00, 
6203161.5744165,1900777.32081014,4863,2465,2465,37.20859063,-121.73106745,2009/03/11 00:00:00+00,6480,Monterey Rd,N of,Bailey Rd, ,Monterey Rd & Bailey Rd,San Jose,,,,2021/03/18 17:05:47+00, 
6204364.60416266,1899259.06039523,4864,2466,2466,37.20446449,-121.72686861,2009/03/11 00:00:00+00,9450,Monterey Rd,S of,Bailey Rd, ,Monterey Rd & Bailey Rd,San Jose,,,,2021/03/18 17:05:47+00, 
6121027.18914491,1936762.04706889,4865,2467,2467,37.30409881,-122.01505362,2008/11/03 00:00:00+00,10330,Miller Av,N of,Bancroft Wy, ,Miller Av & Bancroft Wy,San Jose,,,,2021/03/18 17:05:47+00, 
6121025.28134033,1936469.16117173,4866,2468,2468,37.30329442,-122.01504387,2008/11/03 00:00:00+00,10030,Miller Av,S of,Bancroft Wy, ,Miller Av & Bancroft Wy,San Jose,,,,2021/03/18 17:05:47+00, 
6172812.81752883,1967763.57725731,4867,2469,2469,37.39139532,-121.83856065,2008/05/07 00:00:00+00,6930,Penitencia Creek Rd,W of,Bard St, ,Penitencia Creek Rd & Bard St,San Jose,,,,2021/03/18 17:05:47+00, 
6145125.495607,1918682.69510432,4868,2470,2470,37.25549217,-121.9312589,2005/04/28 00:00:00+00,22730,Union Av,S of,Barrett Av, ,Union Av & Barrett Av,San Jose,,,,2021/03/18 17:05:47+00, 
6178208.57182917,1915870.12920715,4869,2471,2471,37.24910269,-121.81746322,2009/01/16 00:00:00+00,7140,Lean Av,S of,Belden Dr, ,Lean Av & Belden Dr,San Jose,,,,2021/03/18 17:05:47+00, 
6153322.77612841,1917681.22761907,4870,2472,2472,37.25307528,-121.90305521,2006/11/15 00:00:00+00,23256,Branham Ln,W of,Kirk Rd, ,Branham Ln & Kirk Rd,San Jose,,,,2021/03/18 17:05:47+00, 
6153552.05880633,1917790.53415897,4871,2473,2473,37.25338422,-121.90226912,2006/11/15 00:00:00+00,22728,Branham Ln,E of,Kirk Rd, ,Branham Ln & Kirk Rd,San Jose,,,,2021/03/18 17:05:47+00, 
6127070.36898766,1929072.39250073,4872,2474,2474,37.28324355,-121.9938697,2005/02/28 00:00:00+00,7340,Bucknall Rd,E of,Quito Rd, ,Bucknall Rd & Quito Rd,San Jose,,,,2021/03/18 17:05:47+00, 
6131920.88061208,1929120.79102598,4873,2475,2475,37.28358788,-121.97720221,2005/03/03 00:00:00+00,5462,Bucknall Rd,W of,San Tomas Rd, ,Bucknall Rd & San Tomas Rd,San Jose,,,,2021/03/18 17:05:47+00, 
6132150.28828974,1934037.33007739,4874,2476,2476,37.29710465,-121.9766676,2007/09/14 00:00:00+00,11560,San Tomas Aquino Rd,N of,San Tomas Rd, ,San Tomas Aquino Rd & San Tomas Rd,San Jose,,,,2021/03/18 17:05:47+00, 
6123752.79589841,1936403.39391482,4875,2477,2477,37.30323131,-122.00566322,2005/11/08 00:00:00+00,5760,Johnson Av,S of,Castle Glen Av, ,Johnson Av & Castle Glen Av,San Jose,,,,2021/03/18 17:05:47+00, 
6123848.47549708,1936704.63609448,4876,2478,2478,37.30406275,-122.00535097,2005/11/08 00:00:00+00,5680,Johnson Av,N of,Castle Glen Av, ,Johnson Av & Castle Glen Av,San Jose,,,,2021/03/18 17:05:47+00, 
6148589.45554258,1953407.77657264,4877,2479,2479,37.35099877,-121.92118227,2010/06/03 00:00:00+00,33676,Coleman Av,N of,Airport Bl, ,Coleman Av & Airport Bl,San Jose,,,,2021/03/18 17:05:47+00, 
6147665.63652408,1964814.91484757,4878,2480,2480,37.38228801,-121.92495189,2007/04/18 00:00:00+00,25617,First St,S of,Component Dr, ,First St & Component Dr,San Jose,,,,2021/03/18 17:05:47+00, 
6147453.33215867,1965170.3819844,4879,2481,2481,37.38325529,-121.92570095,2007/04/18 00:00:00+00,25206,First St,N of,Component Dr, ,First St & Component Dr,San Jose,,,,2021/03/18 17:05:47+00, 
6182071.1638415,1912276.23252356,4880,2482,2482,37.23937655,-121.80403499,2005/07/18 00:00:00+00,7240,Palmia Dr,W of,Cottle Rd, ,Palmia Dr & Cottle Rd,San Jose,,,,2021/03/18 17:05:47+00, 
6185664.8574415,1940228.56539831,4881,2483,2483,37.31628478,-121.79300987,2005/05/19 00:00:00+00,29311,White Rd,N of,D Amico Dr, ,White Rd & D Amico Dr,San Jose,,,,2021/03/18 17:05:47+00, 
6185769.63511908,1940011.07961281,4882,2484,2484,37.31569148,-121.79263924,2005/05/19 00:00:00+00,29152,White Rd,S of,D Amico Dr, ,White Rd & D Amico Dr,San Jose,,,,2021/03/18 17:05:47+00, 
6164618.09638549,1957762.40336207,4883,2485,2485,37.36361486,-121.86625913,2009/05/20 00:00:00+00,15140,King Rd,S of,Dobbin Dr, ,King Rd & Dobbin Dr,San Jose,,,,2021/03/18 17:05:47+00, 
6150586.8606685,1942587.7302994,4884,2486,2486,37.32136718,-121.91373694,2005/12/12 00:00:00+00,23214,Meridian Av,S of,Douglas St, ,Meridian Av & Douglas St,San Jose,,,,2021/03/18 17:05:47+00, 
6150588.831137,1942796.1176779,4885,2487,2487,37.32193954,-121.91374099,2005/12/12 00:00:00+00,21906,Meridian Av,N of,Douglas St, ,Meridian Av & Douglas St,San Jose,,,,2021/03/18 17:05:47+00, 
6171714.91126008,1932914.49078764,4886,2488,2488,37.29564856,-121.84061403,2006/07/11 00:00:00+00,8130,Lewis Rd,E of,Durant Av, ,Lewis Rd & Durant Av,San Jose,,,,2021/03/18 17:05:47+00, 
6138830.37696366,1938204.28663848,4887,2489,2489,37.30882969,-121.95394077,2005/06/01 00:00:00+00,8932,Williams Rd,E of,Eden Av, ,Williams Rd & Eden Av,San Jose,,,,2021/03/18 17:05:47+00, 
6132094.12829708,1928370.41982332,4888,2490,2490,37.28154082,-121.97655379,2005/09/19 00:00:00+00,14481,Fenian Dr,S of,Rincon Av, ,Fenian Dr & Rincon Av,San Jose,,,,2021/03/18 17:05:47+00, 
6132144.43364267,1927569.19537589,4889,2491,2491,37.27934233,-121.97633715,2005/11/15 00:00:00+00,14017,Fenian Dr,N of,Valerie Dr, ,Fenian Dr & Valerie Dr,San Jose,,,,2021/03/18 17:05:47+00, 
6132107.190935,1927329.36252223,4890,2492,2492,37.27867782,-121.97645139,2005/11/15 00:00:00+00,13535,Fenian Dr,S of,Valerie Dr, ,Fenian Dr & Valerie Dr,San Jose,,,,2021/03/18 17:05:47+00, 
6154505.34758216,1952525.8029429,4891,2493,2493,37.34881225,-121.90078132,2006/02/13 00:00:00+00,16778,Taylor St,W of,First St, ,Taylor St & First St,San Jose,,,,2021/03/18 17:05:47+00, 
6154554.64111875,1952815.31056598,4892,2494,2494,37.34962086,-121.90062599,2006/02/13 00:00:00+00,15151,First St,N of,Taylor St, ,First St & Taylor St,San Jose,,,,2021/03/18 17:05:47+00, 
6154781.980231,1952685.44501206,4893,2495,2495,37.34926202,-121.89983802,2006/02/13 00:00:00+00,13333,Taylor St,E of,First St, ,Taylor St & First St,San Jose,,,,2021/03/18 17:05:47+00, 
6154786.19216482,1952417.33170314,4894,2496,2496,37.34853746,-121.8998092,2006/02/13 00:00:00+00,12964,First St,S of,Taylor St, ,First St & Taylor St,San Jose,,,,2021/03/18 17:05:47+00, 
6173289.64761192,1945471.45681539,4895,2497,2497,37.33019415,-121.83581768,2005/09/14 00:00:00+00,5090,Havana Dr,E of,Florida Av, ,Havana Dr & Florida Av,San Jose,,,,2021/03/18 17:05:47+00, 
6168532.08986983,1969801.67849606,4896,2498,2498,37.3968216,-121.85339115,2008/09/17 00:00:00+00,9930,Sierra Rd,E of,Gehrig Av, ,Sierra Rd & Gehrig Av,San Jose,,,,2021/03/18 17:05:47+00, 
6151507.43658325,1936361.96814464,4897,2499,2499,37.3043001,-121.91025612,2006/01/25 00:00:00+00,9090,Willow St,E of,Glen Eyrie Av, ,Willow St & Glen Eyrie Av,San Jose,,,,2021/03/18 17:05:47+00, 
6151378.35842933,1936290.95680372,4898,2500,2500,37.30409975,-121.9106962,2007/04/02 00:00:00+00,9760,Willow St,W of,Glen Eyrie Av, ,Willow St & Glen Eyrie Av,San Jose,,,,2021/03/18 17:05:47+00, 
6147936.25048417,1918278.18311806,4899,2501,2501,37.25449961,-121.92158181,2005/10/11 00:00:00+00,10548,Leigh Av,S of,Gunston Wy, ,Leigh Av & Gunston Wy,San Jose,,,,2021/03/18 17:05:47+00, 
6179230.07077041,1928444.36718197,4900,2502,2502,37.28366636,-121.81456314,2007/04/10 00:00:00+00,6940,Palisade Dr,S of,Hellyer Av, ,Palisade Dr & Hellyer Av,San Jose,,,,2021/03/18 17:05:47+00, 
6176406.59938325,1928820.39464514,4901,2503,2503,37.28459246,-121.8242964,2007/07/17 00:00:00+00,5900,Hellyer Av,E of,Senter Rd, ,Hellyer Av & Senter Rd,San Jose,,,,2021/03/18 17:05:47+00, 
6148996.79790375,1945782.92797723,4902,2504,2504,37.33007831,-121.91938066,2005/01/25 00:00:00+00,12730,Park Av,N of,Hester Av, ,Park Av & Hester Av,San Jose,,,,2021/03/18 17:05:47+00, 
6179087.94310191,1927720.05596656,4903,2505,2505,37.2816797,-121.81501488,2007/06/19 00:00:00+00,7950,Palisade Dr,N of,Hiawatha Dr, ,Palisade Dr & Hiawatha Dr,San Jose,,,,2021/03/18 17:05:47+00, 
6179094.28757742,1927612.62704757,4904,2506,2506,37.28138485,-121.81498783,2007/06/19 00:00:00+00,6690,Palisade Dr,S of,Hiawatha Dr, ,Palisade Dr & Hiawatha Dr,San Jose,,,,2021/03/18 17:05:47+00, 
6169087.87845641,1974047.33306248,4905,2507,2507,37.40851446,-121.85168774,2006/10/04 00:00:00+00,12189,Piedmont Rd,S of,Hostetter Rd, ,Piedmont Rd & Hostetter Rd,San Jose,,,,2021/03/18 17:05:47+00, 
6169046.26141366,1974124.96709356,4906,2508,2508,37.408726,-121.85183481,2006/10/04 00:00:00+00,11646,Piedmont Rd,N of,Hostetter Rd, ,Piedmont Rd & Hostetter Rd,San Jose,,,,2021/03/18 17:05:47+00, 
6174439.16565408,1951688.5408379,4907,2509,2509,37.34731257,-121.83216832,2006/08/31 00:00:00+00,26800,Story Rd,E of,Jackson Av, ,Story Rd & Jackson Av,San Jose,,,,2021/03/18 17:05:47+00, 
6166149.38170874,1962493.00380898,4908,2510,2510,37.37666725,-121.86122708,2008/11/13 00:00:00+00,12450,Jackson Av,N of,Mossdale Wy, ,Jackson Av & Mossdale Wy,San Jose,,,,2021/03/18 17:05:47+00, 
6174211.75862858,1951687.84562932,4909,2511,2511,37.34731302,-121.83295367,2010/06/02 00:00:00+00,20354,Jackson Av,N of,Story Rd, ,Jackson Av & Story Rd,San Jose,,,,2021/03/18 17:05:47+00, 
6163116.52392933,1953206.39475757,4910,2512,2512,37.35103171,-121.87119231,2010/06/01 00:00:00+00,15438,Julian St,E of,24th St, ,Julian St & 24th St,San Jose,,,,2021/03/18 17:05:47+00, 
6162885.12216116,1953068.60467881,4911,2513,2513,37.35064448,-121.87198668,2008/12/08 00:00:00+00,15180,Julian St,W of,24th St, ,Julian St & 24th St,San Jose,,,,2021/03/18 17:05:47+00, 
6186337.84264408,1939095.36523689,4912,2514,2514,37.31319653,-121.79064893,2005/02/23 00:00:00+00,29354,San Felipe Rd,N of,Keaton Lp, ,San Felipe Rd & Keaton Lp,San Jose,,,,2021/03/18 17:05:47+00, 
6179521.24341641,1938276.1070329,4913,2515,2515,37.31068757,-121.81404396,2010/06/02 00:00:00+00,21719,King Rd,N of,Aborn Rd, ,King Rd & Aborn Rd,San Jose,,,,2021/03/18 17:05:47+00, 
6120086.9137945,1932983.77476981,4914,2516,2516,37.29367685,-122.01808858,2005/10/11 00:00:00+00,16430,Prospect Rd,W of,Larkin Av, ,Prospect Rd & Larkin Av,San Jose,,,,2021/03/18 17:05:47+00, 
6129939.91541392,1934568.5986999,4915,2517,2517,37.29845997,-121.98429735,2005/10/18 00:00:00+00,34073,Saratoga Av,S of,Latimer Av, ,Saratoga Av & Latimer Av,San Jose,,,,2021/03/18 17:05:47+00, 
6170656.87302183,1932023.34361981,4916,2518,2518,37.29315973,-121.84420649,2010/05/19 00:00:00+00,6574,Lewis Rd,E of,Aiello Dr, ,Lewis Rd & Aiello Dr,San Jose,,,,2021/03/18 17:05:47+00, 
6154109.15316458,1932974.78298989,4917,2519,2519,37.29510568,-121.90113791,2007/03/02 00:00:00+00,10520,Pine Av,E of,Lupton Av, ,Pine Av & Lupton Av,San Jose,,,,2021/03/18 17:05:47+00, 
6126920.19901241,1926608.79506573,4918,2520,2520,37.27647717,-121.9942379,2005/01/04 00:00:00+00,20285,Quito Rd,N of,Mccoy Av, ,Quito Rd & Mccoy Av,San Jose,,,,2021/03/18 17:05:47+00, 
6155297.89422542,1933593.98746015,4919,2521,2521,37.29685491,-121.89708339,2008/11/21 00:00:00+00,8010,Pine Av,E of,Newport Av, ,Pine Av & Newport Av,San Jose,,,,2021/03/18 17:05:47+00, 
6169908.25968966,1953517.93776965,4920,2522,2522,37.35215804,-121.84784673,2005/09/12 00:00:00+00,10744,San Antonio St,E of,Oakland Av, ,San Antonio St & Oakland Av,San Jose,,,,2021/03/18 17:05:47+00, 
6169712.25122342,1953404.38681565,4921,2523,2523,37.35183845,-121.84851529,2005/09/12 00:00:00+00,10639,San Antonio St,W of,Oakland Av, ,San Antonio St & Oakland Av,San Jose,,,,2021/03/18 17:05:47+00, 
6139994.70599984,1942606.90512981,4922,2524,2524,37.32097466,-121.95015944,2006/06/29 00:00:00+00,37430,Winchester Bl,N of,Olin St, ,Winchester Bl & Olin St,San Jose,,,,2021/03/18 17:05:47+00, 
6145949.72919475,1965666.26714748,4923,2525,2525,37.3845425,-121.93090245,2006/03/22 00:00:00+00,26640,Trimble Rd,E of,Orchard Pw, ,Trimble Rd & Orchard Pw,San Jose,,,,2021/03/18 17:05:47+00, 
6181390.08777583,1912489.4775039,4924,2526,2526,37.23994527,-121.80637871,2007/07/26 00:00:00+00,6850,Palmia Dr,S of,Primrose Dr, ,Palmia Dr & Primrose Dr,San Jose,,,,2021/03/18 17:05:47+00, 
6169956.86654782,1972077.75071557,4925,2527,2527,37.40313973,-121.84859666,2006/01/10 00:00:00+00,6910,Piedmont Rd,N of,Pinnacle Dr, ,Piedmont Rd & Pinnacle Dr,San Jose,,,,2021/03/18 17:05:47+00, 
6166065.59841175,1944788.11074114,4926,2528,2528,37.32803179,-121.86062667,2006/08/23 00:00:00+00,22920,Story Rd,E of,Remillard Ct, ,Story Rd & Remillard Ct,San Jose,,,,2021/03/18 17:05:47+00, 
6165910.57542783,1944672.08538264,4927,2529,2529,37.32771043,-121.86115809,2006/10/12 00:00:00+00,23540,Story Rd,W of,Remillard Ct, ,Story Rd & Remillard Ct,San Jose,,,,2021/03/18 17:05:47+00, 
6130051.21374774,1943543.05450423,4928,2530,2530,37.32311231,-121.98441428,2005/11/14 00:00:00+00,27076,Stevens Creek Bl,W of,Richfield Dr, ,Stevens Creek Bl & Richfield Dr,San Jose,,,,2021/03/18 17:05:47+00, 
6188117.29610616,1948228.45720689,4929,2531,2531,37.33834688,-121.78495478,2008/01/23 00:00:00+00,7022,Ruby Av,S of,Tully Rd, ,Ruby Av & Tully Rd,San Jose,,,,2021/03/18 17:05:47+00, 
6163948.18302716,1951637.81259289,4930,2532,2532,37.34675758,-121.86825653,2010/06/02 00:00:00+00,18894,Santa Clara St,W of,24th St, ,Santa Clara St & 24th St,San Jose,,,,2021/03/18 17:05:47+00, 
6156107.11603217,1953447.0786594,4931,2533,2533,37.35140794,-121.89531886,2007/02/27 00:00:00+00,13210,Taylor St,W of,Sixth St, ,Taylor St & Sixth St,San Jose,,,,2021/03/18 17:05:47+00, 
6166173.94727641,1917633.86321248,4932,2534,2534,37.2534736,-121.85889332,2010/06/01 00:00:00+00,46749,Santa Teresa Bl,N of,Thornwood Dr, ,Santa Teresa Bl & Thornwood Dr,San Jose,,,,2021/03/18 17:05:47+00, 
6183992.19904141,1939027.36307631,4933,2535,2535,37.31291261,-121.79871029,2006/06/08 00:00:00+00,43650,Aborn Rd,E of,Serpa Dr, ,Aborn Rd & Serpa Dr,San Jose,,,,2021/03/18 17:05:47+00, 
6132044.23141524,1939378.16060306,4934,2536,2536,37.31176647,-121.97732186,2005/10/25 00:00:00+00,43551,Saratoga Av,N of,Manzanita Dr, ,Saratoga Av & Manzanita Dr,San Jose,,,,2021/03/18 17:05:47+00, 
6176435.40444374,1942829.13598457,4935,2537,2537,37.32306074,-121.8248702,2010/06/02 00:00:00+00,43398,Tully Rd,E of,King Rd, ,Tully Rd & King Rd,San Jose,,,,2021/03/18 17:05:47+00, 
6155512.17594908,1964909.21452773,4936,2538,2538,37.38286447,-121.89796095,2010/05/18 00:00:00+00,43256,Brokaw Rd,W of,Oakland, ,Brokaw Rd & Oakland,San Jose,,,,2021/03/18 17:05:47+00, 
6158303.54306975,1965988.67037407,4937,2539,2539,37.38593899,-121.88840172,2007/07/18 00:00:00+00,42790,Murphy Av,W of,Deluca Dr, ,Murphy Av & Deluca Dr,San Jose,,,,2021/03/18 17:05:47+00, 
6132038.18582366,1939110.74545547,4938,2540,2540,37.31103172,-121.97732806,2005/10/25 00:00:00+00,42381,Saratoga Av,S of,Manzanita Dr, ,Saratoga Av & Manzanita Dr,San Jose,,,,2021/03/18 17:05:47+00, 
6132307.31094158,1940540.29902682,4939,2541,2541,37.3149651,-121.97648014,2010/06/03 00:00:00+00,42263,Moorpark Av,S of,Saratoga Av, ,Moorpark Av & Saratoga Av,San Jose,,,,2021/03/18 17:05:47+00, 
6139986.25555742,1941365.88891107,4940,2542,2542,37.31756642,-121.95012245,2007/06/26 00:00:00+00,41880,Winchester Bl,N of,Junipero Serra Fr, ,Winchester Bl & Junipero Serra Fr,San Jose,,,,2021/03/18 17:05:47+00, 
6157131.26785524,1965122.84631832,4941,2543,2543,37.38351346,-121.89239184,2007/04/16 00:00:00+00,41799,Murphy Av,W of,Oyama Dr, ,Murphy Av & Oyama Dr,San Jose,,,,2021/03/18 17:05:47+00, 
6145242.51965116,1934423.50712657,4942,2544,2544,37.29872377,-121.93168419,2005/01/11 00:00:00+00,41558,Bascom Av,N of,Southwest Ex, ,Bascom Av & Southwest Ex,San Jose,,,,2021/03/18 17:05:47+00, 
6157263.81680274,1965220.90124032,4943,2545,2545,37.38378816,-121.89194061,2007/04/16 00:00:00+00,41322,Murphy Av,E of,Oyama Dr, ,Murphy Av & Oyama Dr,San Jose,,,,2021/03/18 17:05:47+00, 
